[
  {
    "latitude":17.4633,
    "longitude":82.0271,
    "district":"Alluri Sitharama Raju",
    "block":"Addateegala",
    "village":"Addateegala",
    "wl":6.0,
    "year":2014
  },
  {
    "latitude":17.4379,
    "longitude":82.074,
    "district":"Alluri Sitharama Raju",
    "block":"Addateegala",
    "village":"Veerbhadrapuram",
    "wl":1.7,
    "year":2014
  },
  {
    "latitude":18.2388,
    "longitude":83.0011,
    "district":"Alluri Sitharama Raju",
    "block":"Ananthagiri",
    "village":"Anantagiri",
    "wl":5.3,
    "year":2014
  },
  {
    "latitude":18.216,
    "longitude":83.1019,
    "district":"Alluri Sitharama Raju",
    "block":"Ananthagiri",
    "village":"Bangarammapeta",
    "wl":4.4,
    "year":2014
  },
  {
    "latitude":18.2074,
    "longitude":83.0743,
    "district":"Alluri Sitharama Raju",
    "block":"Ananthagiri",
    "village":"Kottur",
    "wl":2.4,
    "year":2014
  },
  {
    "latitude":18.3207,
    "longitude":82.8814,
    "district":"Alluri Sitharama Raju",
    "block":"Araku Valley",
    "village":"Araku",
    "wl":8.1,
    "year":2014
  },
  {
    "latitude":18.2785,
    "longitude":82.96694,
    "district":"Alluri Sitharama Raju",
    "block":"Araku Valley",
    "village":"Sunkarametta",
    "wl":2.1,
    "year":2014
  },
  {
    "latitude":17.8071,
    "longitude":82.4959,
    "district":"Alluri Sitharama Raju",
    "block":"Chintapalle",
    "village":"Lambasingi",
    "wl":3.3,
    "year":2014
  },
  {
    "latitude":17.8554,
    "longitude":82.4361,
    "district":"Alluri Sitharama Raju",
    "block":"Chintapalle",
    "village":"Lotugadda",
    "wl":0.7,
    "year":2014
  },
  {
    "latitude":17.756,
    "longitude":81.387,
    "district":"Alluri Sitharama Raju",
    "block":"Chintoor",
    "village":"Chintoor",
    "wl":4.8,
    "year":2014
  },
  {
    "latitude":17.59458,
    "longitude":81.0856,
    "district":"Alluri Sitharama Raju",
    "block":"Chintoor",
    "village":"Chirevalli",
    "wl":0.0,
    "year":2014
  },
  {
    "latitude":17.74267,
    "longitude":81.17827,
    "district":"Alluri Sitharama Raju",
    "block":"Chintoor",
    "village":"Edugarallapalli",
    "wl":5.0,
    "year":2014
  },
  {
    "latitude":17.82787,
    "longitude":81.63193,
    "district":"Alluri Sitharama Raju",
    "block":"Chintoor",
    "village":"Mothugudem",
    "wl":1.1,
    "year":2014
  },
  {
    "latitude":17.78168,
    "longitude":81.28287,
    "district":"Alluri Sitharama Raju",
    "block":"Chintoor",
    "village":"Sarivela",
    "wl":3.1,
    "year":2014
  },
  {
    "latitude":17.3235,
    "longitude":81.6974,
    "district":"Alluri Sitharama Raju",
    "block":"Devipatnam",
    "village":"Chinna Ramanayapet",
    "wl":2.5,
    "year":2014
  },
  {
    "latitude":18.2885,
    "longitude":82.7921,
    "district":"Alluri Sitharama Raju",
    "block":"Dumbriguda",
    "village":"Dimriguda",
    "wl":5.7,
    "year":2014
  },
  {
    "latitude":17.9996,
    "longitude":82.1252,
    "district":"Alluri Sitharama Raju",
    "block":"Gudem Kotha Veedhi",
    "village":"Dharakonda",
    "wl":6.1,
    "year":2014
  },
  {
    "latitude":17.863,
    "longitude":82.1957,
    "district":"Alluri Sitharama Raju",
    "block":"Gudem Kotha Veedhi",
    "village":"Gudem",
    "wl":3.5,
    "year":2014
  },
  {
    "latitude":18.1386,
    "longitude":82.6878,
    "district":"Alluri Sitharama Raju",
    "block":"Hukumpeta",
    "village":"Kontela",
    "wl":4.5,
    "year":2014
  },
  {
    "latitude":18.2106,
    "longitude":82.7788,
    "district":"Alluri Sitharama Raju",
    "block":"Hukumpeta",
    "village":"Rangasheela",
    "wl":1.0,
    "year":2014
  },
  {
    "latitude":17.6599,
    "longitude":82.2194,
    "district":"Alluri Sitharama Raju",
    "block":"Koyyuru",
    "village":"Koyyuru",
    "wl":2.6,
    "year":2014
  },
  {
    "latitude":17.5961,
    "longitude":81.71549,
    "district":"Alluri Sitharama Raju",
    "block":"Maredumilli",
    "village":"Maredumilli",
    "wl":3.0,
    "year":2014
  },
  {
    "latitude":17.71967,
    "longitude":81.04836,
    "district":"Alluri Sitharama Raju",
    "block":"Nellipaka",
    "village":"Lakshmipuram",
    "wl":7.7,
    "year":2014
  },
  {
    "latitude":17.71967,
    "longitude":81.04836,
    "district":"Alluri Sitharama Raju",
    "block":"Nellipaka",
    "village":"Lakshmipuram",
    "wl":7.2,
    "year":2014
  },
  {
    "latitude":17.9453,
    "longitude":82.7566,
    "district":"Alluri Sitharama Raju",
    "block":"Paderu",
    "village":"Garikabanda",
    "wl":1.6,
    "year":2014
  },
  {
    "latitude":18.0369,
    "longitude":82.6999,
    "district":"Alluri Sitharama Raju",
    "block":"Paderu",
    "village":"Minimuluru",
    "wl":5.7,
    "year":2014
  },
  {
    "latitude":18.0795,
    "longitude":82.6735,
    "district":"Alluri Sitharama Raju",
    "block":"Paderu",
    "village":"Paderu",
    "wl":7.0,
    "year":2014
  },
  {
    "latitude":17.9864,
    "longitude":82.7958,
    "district":"Alluri Sitharama Raju",
    "block":"Paderu",
    "village":"Vadapalem",
    "wl":1.8,
    "year":2014
  },
  {
    "latitude":17.9746,
    "longitude":82.7334,
    "district":"Alluri Sitharama Raju",
    "block":"Paderu",
    "village":"Vontlamamidi",
    "wl":2.2,
    "year":2014
  },
  {
    "latitude":18.1825,
    "longitude":82.6374,
    "district":"Alluri Sitharama Raju",
    "block":"Peda Bayalu",
    "village":"Gamparai",
    "wl":3.6,
    "year":2014
  },
  {
    "latitude":17.5408,
    "longitude":82.2229,
    "district":"Alluri Sitharama Raju",
    "block":"Rajavommangi",
    "village":"Rajavommangi",
    "wl":2.3,
    "year":2014
  },
  {
    "latitude":17.3139,
    "longitude":81.8398,
    "district":"Alluri Sitharama Raju",
    "block":"Rampachodavaram",
    "village":"Folkspeta",
    "wl":2.5,
    "year":2014
  },
  {
    "latitude":17.4402,
    "longitude":81.7805,
    "district":"Alluri Sitharama Raju",
    "block":"Rampachodavaram",
    "village":"Rampachodavaram",
    "wl":5.2,
    "year":2014
  },
  {
    "latitude":17.3762,
    "longitude":81.7915,
    "district":"Alluri Sitharama Raju",
    "block":"Rampachodavaram",
    "village":"Sitapalli",
    "wl":2.9,
    "year":2014
  },
  {
    "latitude":17.60917,
    "longitude":82.97784,
    "district":"Anakapalli",
    "block":"Achutapuram",
    "village":"Haripalem",
    "wl":5.8,
    "year":2014
  },
  {
    "latitude":17.68095,
    "longitude":82.9817,
    "district":"Anakapalli",
    "block":"Anakapalle",
    "village":"Anakapalli",
    "wl":2.5,
    "year":2014
  },
  {
    "latitude":17.83871,
    "longitude":82.86782,
    "district":"Anakapalli",
    "block":"Butchayyapeta",
    "village":"Bangarumitta",
    "wl":4.3,
    "year":2014
  },
  {
    "latitude":17.81936,
    "longitude":82.83775,
    "district":"Anakapalli",
    "block":"Butchayyapeta",
    "village":"L.Singavaram",
    "wl":2.0,
    "year":2014
  },
  {
    "latitude":17.67405,
    "longitude":82.44868,
    "district":"Anakapalli",
    "block":"Golugonda",
    "village":"Mallampet",
    "wl":1.5,
    "year":2014
  },
  {
    "latitude":17.67734,
    "longitude":82.4944,
    "district":"Anakapalli",
    "block":"Golugonda",
    "village":"Naganna Dorapalem",
    "wl":5.4,
    "year":2014
  },
  {
    "latitude":17.6723,
    "longitude":82.3619,
    "district":"Anakapalli",
    "block":"Golugonda",
    "village":"Pata K.D.Peta",
    "wl":1.7,
    "year":2014
  },
  {
    "latitude":17.63373,
    "longitude":82.89215,
    "district":"Anakapalli",
    "block":"Kasimkota",
    "village":"Tallapalem",
    "wl":0.9,
    "year":2014
  },
  {
    "latitude":17.56487,
    "longitude":82.68665,
    "district":"Anakapalli",
    "block":"Kotauratla",
    "village":"Kotauratla",
    "wl":2.4,
    "year":2014
  },
  {
    "latitude":17.67606,
    "longitude":82.59564,
    "district":"Anakapalli",
    "block":"Narsipatnam",
    "village":"Narsipatnam",
    "wl":2.3,
    "year":2014
  },
  {
    "latitude":17.4928,
    "longitude":83.00236,
    "district":"Anakapalli",
    "block":"Rambilli",
    "village":"Pudimadaka",
    "wl":2.4,
    "year":2014
  },
  {
    "latitude":17.7562,
    "longitude":82.7051,
    "district":"Anakapalli",
    "block":"Ravikamatham",
    "village":"Kothakota",
    "wl":3.1,
    "year":2014
  },
  {
    "latitude":17.78451,
    "longitude":82.77913,
    "district":"Anakapalli",
    "block":"Ravikamatham",
    "village":"Medivoda",
    "wl":2.0,
    "year":2014
  },
  {
    "latitude":17.7129,
    "longitude":82.6668,
    "district":"Anakapalli",
    "block":"Rolugunta",
    "village":"Rolugunta",
    "wl":3.4,
    "year":2014
  },
  {
    "latitude":17.43203,
    "longitude":82.74759,
    "district":"Anakapalli",
    "block":"S.Rayavaram",
    "village":"Addaroddu",
    "wl":1.3,
    "year":2014
  },
  {
    "latitude":17.40054,
    "longitude":82.76798,
    "district":"Anakapalli",
    "block":"S.Rayavaram",
    "village":"Gurrajupeta",
    "wl":2.4,
    "year":2014
  },
  {
    "latitude":17.45476,
    "longitude":82.80249,
    "district":"Anakapalli",
    "block":"S.Rayavaram",
    "village":"Rayavaram",
    "wl":2.3,
    "year":2014
  },
  {
    "latitude":17.39716,
    "longitude":82.81776,
    "district":"Anakapalli",
    "block":"S.Rayavaram",
    "village":"Revupolavaram",
    "wl":1.4,
    "year":2014
  },
  {
    "latitude":17.54635,
    "longitude":82.85566,
    "district":"Anakapalli",
    "block":"Yelamanchili",
    "village":"Yelamanchili",
    "wl":2.9,
    "year":2014
  },
  {
    "latitude":14.6617,
    "longitude":77.49913,
    "district":"Ananthapuramu",
    "block":"Anantapur",
    "village":"Kamarupalli",
    "wl":12.4,
    "year":2014
  },
  {
    "latitude":14.67769,
    "longitude":77.4562,
    "district":"Ananthapuramu",
    "block":"Atmakur",
    "village":"Waddipalli",
    "wl":7.1,
    "year":2014
  },
  {
    "latitude":14.75411,
    "longitude":77.71196,
    "district":"Ananthapuramu",
    "block":"Bukkarayasamudram",
    "village":"Korrapadu",
    "wl":3.4,
    "year":2014
  },
  {
    "latitude":15.1179,
    "longitude":77.64,
    "district":"Ananthapuramu",
    "block":"Gooty",
    "village":"Gooty",
    "wl":3.0,
    "year":2014
  },
  {
    "latitude":15.15571,
    "longitude":77.3837,
    "district":"Ananthapuramu",
    "block":"Guntakal",
    "village":"Guntakal",
    "wl":1.8,
    "year":2014
  },
  {
    "latitude":14.5483,
    "longitude":77.1071,
    "district":"Ananthapuramu",
    "block":"Kalyandrug",
    "village":"Kalyandurg",
    "wl":4.4,
    "year":2014
  },
  {
    "latitude":14.7054,
    "longitude":76.8484,
    "district":"Ananthapuramu",
    "block":"Rayadurg",
    "village":"Rayadurg",
    "wl":8.2,
    "year":2014
  },
  {
    "latitude":14.851,
    "longitude":77.2501,
    "district":"Ananthapuramu",
    "block":"Uravakonda",
    "village":"Amidala",
    "wl":5.7,
    "year":2014
  },
  {
    "latitude":15.03043,
    "longitude":77.38311,
    "district":"Ananthapuramu",
    "block":"Vajrakarur",
    "village":"Vajrakarur",
    "wl":6.2,
    "year":2014
  },
  {
    "latitude":13.66631,
    "longitude":78.41837,
    "district":"Annamayya",
    "block":"B.Kothakota",
    "village":"Kandlamadugu",
    "wl":12.6,
    "year":2014
  },
  {
    "latitude":13.94948,
    "longitude":78.68845,
    "district":"Annamayya",
    "block":"Chinnamandem",
    "village":"Chinnamandyam",
    "wl":4.0,
    "year":2014
  },
  {
    "latitude":14.02485,
    "longitude":78.50271,
    "district":"Annamayya",
    "block":"Galiveedu",
    "village":"Galiveedu",
    "wl":3.9,
    "year":2014
  },
  {
    "latitude":13.82753,
    "longitude":78.78775,
    "district":"Annamayya",
    "block":"Kalakada",
    "village":"Kalakoda",
    "wl":8.7,
    "year":2014
  },
  {
    "latitude":13.95871,
    "longitude":79.35315,
    "district":"Annamayya",
    "block":"Kodur",
    "village":"Kodur",
    "wl":10.0,
    "year":2014
  },
  {
    "latitude":13.59343,
    "longitude":78.52698,
    "district":"Annamayya",
    "block":"Madanapalle",
    "village":"Arogyavaram",
    "wl":18.2,
    "year":2014
  },
  {
    "latitude":13.55127,
    "longitude":78.52983,
    "district":"Annamayya",
    "block":"Madanapalle",
    "village":"Basani Khonda",
    "wl":9.3,
    "year":2014
  },
  {
    "latitude":13.64421,
    "longitude":78.70485,
    "district":"Annamayya",
    "block":"Nimmanapalle",
    "village":"Chintaparti",
    "wl":3.8,
    "year":2014
  },
  {
    "latitude":14.29693,
    "longitude":78.7523,
    "district":"Annamayya",
    "block":"Ramapuram",
    "village":"Guvvalacheruvu",
    "wl":5.1,
    "year":2014
  },
  {
    "latitude":13.98899,
    "longitude":78.95367,
    "district":"Annamayya",
    "block":"T.Sundupalle",
    "village":"Konnidigaripalli",
    "wl":6.3,
    "year":2014
  },
  {
    "latitude":13.91567,
    "longitude":78.99868,
    "district":"Annamayya",
    "block":"T.Sundupalle",
    "village":"Pincha",
    "wl":11.1,
    "year":2014
  },
  {
    "latitude":14.10753,
    "longitude":78.94972,
    "district":"Annamayya",
    "block":"Veeraballi",
    "village":"Sanipai",
    "wl":5.2,
    "year":2014
  },
  {
    "latitude":16.06978,
    "longitude":80.66747,
    "district":"Bapatla",
    "block":"Amruthalur",
    "village":"Govada",
    "wl":2.0,
    "year":2014
  },
  {
    "latitude":16.18465,
    "longitude":80.65948,
    "district":"Bapatla",
    "block":"Amruthalur",
    "village":"Kuchipudi",
    "wl":1.4,
    "year":2014
  },
  {
    "latitude":15.91587,
    "longitude":80.48235,
    "district":"Bapatla",
    "block":"Bapatla",
    "village":"Bapatla",
    "wl":2.0,
    "year":2014
  },
  {
    "latitude":15.9354,
    "longitude":80.44507,
    "district":"Bapatla",
    "block":"Bapatla",
    "village":"Cheruvu Jammulapalem",
    "wl":3.1,
    "year":2014
  },
  {
    "latitude":16.09661,
    "longitude":80.77324,
    "district":"Bapatla",
    "block":"Bhattiprolu",
    "village":"Bhattiprolu",
    "wl":1.6,
    "year":2014
  },
  {
    "latitude":16.06112,
    "longitude":80.70123,
    "district":"Bapatla",
    "block":"Cherukupalle",
    "village":"Punnapalle",
    "wl":1.9,
    "year":2014
  },
  {
    "latitude":15.72645,
    "longitude":80.25433,
    "district":"Bapatla",
    "block":"Chinaganjam",
    "village":"Kadavakuduru",
    "wl":3.7,
    "year":2014
  },
  {
    "latitude":15.82977,
    "longitude":80.35452,
    "district":"Bapatla",
    "block":"Chirala",
    "village":"Chirala",
    "wl":1.7,
    "year":2014
  },
  {
    "latitude":15.79749,
    "longitude":80.41105,
    "district":"Bapatla",
    "block":"Chirala",
    "village":"Vadarevu",
    "wl":0.9,
    "year":2014
  },
  {
    "latitude":15.74255,
    "longitude":80.17304,
    "district":"Bapatla",
    "block":"Inkollu",
    "village":"Duddukuru",
    "wl":3.1,
    "year":2014
  },
  {
    "latitude":15.8263,
    "longitude":80.19111,
    "district":"Bapatla",
    "block":"Inkollu",
    "village":"Inkolu",
    "wl":1.8,
    "year":2014
  },
  {
    "latitude":15.84313,
    "longitude":80.0518,
    "district":"Bapatla",
    "block":"Janakavaram Ponguluru Muppavaram",
    "village":null,
    "wl":0.1,
    "year":2014
  },
  {
    "latitude":15.87829,
    "longitude":80.20987,
    "district":"Bapatla",
    "block":"Karamchedu",
    "village":"Daggu Padu",
    "wl":1.3,
    "year":2014
  },
  {
    "latitude":15.8716,
    "longitude":80.33343,
    "district":"Bapatla",
    "block":"Karamchedu",
    "village":"Karamchedu",
    "wl":0.0,
    "year":2014
  },
  {
    "latitude":16.16666,
    "longitude":80.8049,
    "district":"Bapatla",
    "block":"Kollur",
    "village":"Kolluru",
    "wl":1.1,
    "year":2014
  },
  {
    "latitude":15.72831,
    "longitude":80.0156,
    "district":"Bapatla",
    "block":"Korisapadu",
    "village":"Medarmetla",
    "wl":3.9,
    "year":2014
  },
  {
    "latitude":15.9719,
    "longitude":80.61419,
    "district":"Bapatla",
    "block":"Nagaram",
    "village":"Mannevaripalem",
    "wl":1.5,
    "year":2014
  },
  {
    "latitude":15.90237,
    "longitude":80.66388,
    "district":"Bapatla",
    "block":"Nizampatnam",
    "village":"Nijampatnam",
    "wl":1.4,
    "year":2014
  },
  {
    "latitude":15.98293,
    "longitude":80.75313,
    "district":"Bapatla",
    "block":"Nizampatnam",
    "village":"Pallapatla",
    "wl":1.9,
    "year":2014
  },
  {
    "latitude":15.93479,
    "longitude":80.23398,
    "district":"Bapatla",
    "block":"Parchur",
    "village":"Nutalapadu",
    "wl":1.4,
    "year":2014
  },
  {
    "latitude":16.0288,
    "longitude":80.8397,
    "district":"Bapatla",
    "block":"Repalle",
    "village":"Repalle",
    "wl":1.5,
    "year":2014
  },
  {
    "latitude":16.1389,
    "longitude":80.72749,
    "district":"Bapatla",
    "block":"Vemuru",
    "village":"Chavali",
    "wl":4.1,
    "year":2014
  },
  {
    "latitude":15.77425,
    "longitude":80.30475,
    "district":"Bapatla",
    "block":"Vetapalem",
    "village":"Veta Palem",
    "wl":3.8,
    "year":2014
  },
  {
    "latitude":13.19563,
    "longitude":79.00402,
    "district":"Chittoor",
    "block":"Bangarupalem",
    "village":"Shankrantipalli",
    "wl":8.0,
    "year":2014
  },
  {
    "latitude":13.2075,
    "longitude":79.09812,
    "district":"Chittoor",
    "block":"Chittoor",
    "village":"Chittoor",
    "wl":5.7,
    "year":2014
  },
  {
    "latitude":13.42624,
    "longitude":79.45314,
    "district":"Chittoor",
    "block":"Karvetinagar",
    "village":"Karvetnagar",
    "wl":6.5,
    "year":2014
  },
  {
    "latitude":13.33126,
    "longitude":79.6222,
    "district":"Chittoor",
    "block":"Nagari",
    "village":"Bugga Agraharam",
    "wl":2.6,
    "year":2014
  },
  {
    "latitude":13.3492,
    "longitude":79.6736,
    "district":"Chittoor",
    "block":"Nindra",
    "village":"C.Kandriga",
    "wl":3.1,
    "year":2014
  },
  {
    "latitude":13.14776,
    "longitude":78.66117,
    "district":"Chittoor",
    "block":"Palamaner",
    "village":"Dugina Varipalli",
    "wl":4.1,
    "year":2014
  },
  {
    "latitude":13.19831,
    "longitude":78.74307,
    "district":"Chittoor",
    "block":"Palamaner",
    "village":"Palamaneru",
    "wl":5.2,
    "year":2014
  },
  {
    "latitude":13.54709,
    "longitude":78.91663,
    "district":"Chittoor",
    "block":"Sodam",
    "village":"Battuvaripalli",
    "wl":2.2,
    "year":2014
  },
  {
    "latitude":13.30327,
    "longitude":79.28713,
    "district":"Chittoor",
    "block":"Srirangarajapuram",
    "village":"Arumakapally",
    "wl":7.8,
    "year":2014
  },
  {
    "latitude":13.30289,
    "longitude":79.31127,
    "district":"Chittoor",
    "block":"Srirangarajapuram",
    "village":"Tayyuru",
    "wl":4.8,
    "year":2014
  },
  {
    "latitude":13.26227,
    "longitude":79.0604,
    "district":"Chittoor",
    "block":"Thavanampalle",
    "village":"Kanipakkampatnam",
    "wl":8.4,
    "year":2014
  },
  {
    "latitude":13.00081,
    "longitude":78.47934,
    "district":"Chittoor",
    "block":"Venkatagirikota",
    "village":"Venkatagirikota",
    "wl":10.2,
    "year":2014
  },
  {
    "latitude":13.10771,
    "longitude":78.99415,
    "district":"Chittoor",
    "block":"Yadamari",
    "village":"Muddu Ramapuram",
    "wl":6.4,
    "year":2014
  },
  {
    "latitude":16.6613,
    "longitude":82.0125,
    "district":"Dr. B.R. Ambedkar KonaseemAianavilli",
    "block":null,
    "village":"Ainavalli",
    "wl":1.6,
    "year":2014
  },
  {
    "latitude":16.7929,
    "longitude":81.8659,
    "district":"Dr. B.R. Ambedkar KonaseemAianavilli",
    "block":null,
    "village":"Jonnada",
    "wl":0.6,
    "year":2014
  },
  {
    "latitude":16.6602,
    "longitude":82.0246,
    "district":"Dr. B.R. Ambedkar KonaseemAianavilli",
    "block":null,
    "village":"Mukteshwaram",
    "wl":4.8,
    "year":2014
  },
  {
    "latitude":16.6187,
    "longitude":82.0195,
    "district":"Dr. B.R. Ambedkar KonaseemAianavilli",
    "block":null,
    "village":"Vilasa",
    "wl":1.1,
    "year":2014
  },
  {
    "latitude":16.5734,
    "longitude":82.0051,
    "district":"Dr. B.R. Ambedkar KonaseemAma alapuram",
    "block":null,
    "village":"Amalapuram",
    "wl":1.4,
    "year":2014
  },
  {
    "latitude":16.562,
    "longitude":81.9956,
    "district":"Dr. B.R. Ambedkar KonaseemAma alapuram",
    "block":null,
    "village":"Amalapuram",
    "wl":1.2,
    "year":2014
  },
  {
    "latitude":16.5882,
    "longitude":81.9738,
    "district":"Dr. B.R. Ambedkar KonaseemAma alapuram",
    "block":null,
    "village":"Bandurlanka",
    "wl":3.5,
    "year":2014
  },
  {
    "latitude":16.5933,
    "longitude":81.9523,
    "district":"Dr. B.R. Ambedkar KonaseemAma bajipeta",
    "block":null,
    "village":"Ambajipeta",
    "wl":2.4,
    "year":2014
  },
  {
    "latitude":16.6544,
    "longitude":81.9381,
    "district":"Dr. B.R. Ambedkar KonaseemAma bajipeta",
    "block":null,
    "village":"Chinalanka",
    "wl":2.7,
    "year":2014
  },
  {
    "latitude":16.7796,
    "longitude":81.8027,
    "district":"Dr. B.R. Ambedkar KonaseemAtareyapuram",
    "block":null,
    "village":"Rally",
    "wl":4.6,
    "year":2014
  },
  {
    "latitude":16.6963,
    "longitude":82.1802,
    "district":"Dr. B.R. Ambedkar KonaseemI. aPolavaram",
    "block":null,
    "village":"Komaragiri",
    "wl":1.7,
    "year":2014
  },
  {
    "latitude":16.6728,
    "longitude":82.165,
    "district":"Dr. B.R. Ambedkar KonaseemI. aPolavaram",
    "block":null,
    "village":"Muramalla",
    "wl":1.1,
    "year":2014
  },
  {
    "latitude":16.7294,
    "longitude":82.2141,
    "district":"Dr. B.R. Ambedkar KonaseemI. aPolavaram",
    "block":null,
    "village":"Yanam",
    "wl":1.8,
    "year":2014
  },
  {
    "latitude":16.7159,
    "longitude":81.8964,
    "district":"Dr. B.R. Ambedkar KonaseemKoathapeta",
    "block":null,
    "village":"Kothapeta",
    "wl":2.9,
    "year":2014
  },
  {
    "latitude":16.716,
    "longitude":81.8977,
    "district":"Dr. B.R. Ambedkar KonaseemKoathapeta",
    "block":null,
    "village":"Kothapeta",
    "wl":2.5,
    "year":2014
  },
  {
    "latitude":16.716,
    "longitude":81.8977,
    "district":"Dr. B.R. Ambedkar KonaseemKoathapeta",
    "block":null,
    "village":"Kothapeta",
    "wl":5.1,
    "year":2014
  },
  {
    "latitude":16.4135,
    "longitude":81.8047,
    "district":"Dr. B.R. Ambedkar KonaseemMaalikipuram",
    "block":null,
    "village":"Malikipuram",
    "wl":0.7,
    "year":2014
  },
  {
    "latitude":16.4046,
    "longitude":81.80582,
    "district":"Dr. B.R. Ambedkar KonaseemMaalikipuram",
    "block":null,
    "village":"Pattipuram",
    "wl":1.6,
    "year":2014
  },
  {
    "latitude":16.5307,
    "longitude":81.9234,
    "district":"Dr. B.R. Ambedkar KonaseemMaamidikuduru",
    "block":null,
    "village":"Appanapalle",
    "wl":3.6,
    "year":2014
  },
  {
    "latitude":16.927,
    "longitude":81.9167,
    "district":"Dr. B.R. Ambedkar KonaseemMaandapeta",
    "block":null,
    "village":"Dwarapudi",
    "wl":0.9,
    "year":2014
  },
  {
    "latitude":16.6165,
    "longitude":82.0731,
    "district":"Dr. B.R. Ambedkar KonaseemMaummidivaram",
    "block":null,
    "village":"Mobalacherevu",
    "wl":1.5,
    "year":2014
  },
  {
    "latitude":16.6562,
    "longitude":82.1221,
    "district":"Dr. B.R. Ambedkar KonaseemMaummidivaram",
    "block":null,
    "village":"Thanelankamulli",
    "wl":1.7,
    "year":2014
  },
  {
    "latitude":16.6998,
    "longitude":82.038,
    "district":"Dr. B.R. Ambedkar KonaseemPaamarru",
    "block":null,
    "village":"Kotipalle",
    "wl":1.7,
    "year":2014
  },
  {
    "latitude":16.7898,
    "longitude":82.066,
    "district":"Dr. B.R. Ambedkar KonaseemRaavulapalem",
    "block":null,
    "village":"Annaipeta",
    "wl":1.1,
    "year":2014
  },
  {
    "latitude":16.5879,
    "longitude":81.8885,
    "district":"Dr. B.R. Ambedkar KonaseemRaavulapalem",
    "block":null,
    "village":"Delta Gannavarm",
    "wl":2.2,
    "year":2014
  },
  {
    "latitude":16.7921,
    "longitude":82.0637,
    "district":"Dr. B.R. Ambedkar KonaseemRaavulapalem",
    "block":null,
    "village":"Draksharamam",
    "wl":3.3,
    "year":2014
  },
  {
    "latitude":16.7029,
    "longitude":81.8325,
    "district":"Dr. B.R. Ambedkar KonaseemRaavulapalem",
    "block":null,
    "village":"Mummidivarampad",
    "wl":2.4,
    "year":2014
  },
  {
    "latitude":16.8168,
    "longitude":82.0391,
    "district":"Dr. B.R. Ambedkar KonaseemRaavulapalem",
    "block":null,
    "village":"Tallapolom",
    "wl":1.7,
    "year":2014
  },
  {
    "latitude":16.7764,
    "longitude":82.08786,
    "district":"Dr. B.R. Ambedkar KonaseemRaavulapalem",
    "block":null,
    "village":"Vegayamma Peta",
    "wl":1.7,
    "year":2014
  },
  {
    "latitude":16.48,
    "longitude":81.8446,
    "district":"Dr. B.R. Ambedkar KonaseemRaazole",
    "block":null,
    "village":"Razole",
    "wl":2.4,
    "year":2014
  },
  {
    "latitude":16.3337,
    "longitude":81.7332,
    "district":"Dr. B.R. Ambedkar KonaseemSaakhinetipalle",
    "block":null,
    "village":"Antarvedi",
    "wl":1.9,
    "year":2014
  },
  {
    "latitude":16.9384,
    "longitude":81.9542,
    "district":"East Godavari",
    "block":"Anaparthy",
    "village":"Anaparthy",
    "wl":1.4,
    "year":2014
  },
  {
    "latitude":17.2083,
    "longitude":81.8467,
    "district":"East Godavari",
    "block":"Gokavaram",
    "village":"Bhavujipet",
    "wl":1.1,
    "year":2014
  },
  {
    "latitude":17.2653,
    "longitude":81.8475,
    "district":"East Godavari",
    "block":"Gokavaram",
    "village":"Gokavaram",
    "wl":2.7,
    "year":2014
  },
  {
    "latitude":17.0895,
    "longitude":81.5966,
    "district":"East Godavari",
    "block":"Gopalapuram",
    "village":"Chityala",
    "wl":1.9,
    "year":2014
  },
  {
    "latitude":17.1011,
    "longitude":81.5482,
    "district":"East Godavari",
    "block":"Gopalapuram",
    "village":"Gopalpuram",
    "wl":2.6,
    "year":2014
  },
  {
    "latitude":17.0183,
    "longitude":81.6484,
    "district":"East Godavari",
    "block":"Kovvur",
    "village":"I.Pangadi",
    "wl":1.5,
    "year":2014
  },
  {
    "latitude":17.0036,
    "longitude":81.7416,
    "district":"East Godavari",
    "block":"Kovvur",
    "village":"Kovvur",
    "wl":0.8,
    "year":2014
  },
  {
    "latitude":16.9451,
    "longitude":81.4018,
    "district":"East Godavari",
    "block":"Nallajerla",
    "village":"Nallajerla",
    "wl":22.9,
    "year":2014
  },
  {
    "latitude":16.916,
    "longitude":81.6972,
    "district":"East Godavari",
    "block":"Nidadavole",
    "village":"Goparam",
    "wl":2.7,
    "year":2014
  },
  {
    "latitude":16.8685,
    "longitude":81.7101,
    "district":"East Godavari",
    "block":"Nidadavole",
    "village":"Munipalli",
    "wl":3.6,
    "year":2014
  },
  {
    "latitude":16.8549,
    "longitude":81.7143,
    "district":"East Godavari",
    "block":"Nidadavole",
    "village":"Munipalli",
    "wl":1.5,
    "year":2014
  },
  {
    "latitude":16.9392,
    "longitude":81.7866,
    "district":"East Godavari",
    "block":"Rajahmundry Rural",
    "village":"Dowalaiswaram",
    "wl":6.8,
    "year":2014
  },
  {
    "latitude":16.9392,
    "longitude":81.7866,
    "district":"East Godavari",
    "block":"Rajahmundry Rural",
    "village":"Dowalaiswaram",
    "wl":7.7,
    "year":2014
  },
  {
    "latitude":17.0595,
    "longitude":81.8051,
    "district":"East Godavari",
    "block":"Rajahmundry Rural",
    "village":"Kolamuru",
    "wl":1.6,
    "year":2014
  },
  {
    "latitude":16.9915,
    "longitude":81.7776,
    "district":"East Godavari",
    "block":"Rajahmundry Urban",
    "village":"Rajahmundry",
    "wl":1.5,
    "year":2014
  },
  {
    "latitude":16.9726,
    "longitude":81.7851,
    "district":"East Godavari",
    "block":"Rajahmundry Urban",
    "village":"Swarajyanagar",
    "wl":2.3,
    "year":2014
  },
  {
    "latitude":17.083,
    "longitude":81.9065,
    "district":"East Godavari",
    "block":"Rajanagaram",
    "village":"Rajanagaram",
    "wl":1.3,
    "year":2014
  },
  {
    "latitude":17.0883,
    "longitude":82.025,
    "district":"East Godavari",
    "block":"Rangampeta",
    "village":"Kotapadu",
    "wl":4.5,
    "year":2014
  },
  {
    "latitude":17.1633,
    "longitude":81.659,
    "district":"East Godavari",
    "block":"Thallapudi",
    "village":"Tadipudi",
    "wl":1.3,
    "year":2014
  },
  {
    "latitude":17.124,
    "longitude":81.6687,
    "district":"East Godavari",
    "block":"Thallapudi",
    "village":"Tallapudi",
    "wl":0.8,
    "year":2014
  },
  {
    "latitude":17.1108,
    "longitude":81.6735,
    "district":"East Godavari",
    "block":"Thallapudi",
    "village":"Vegeshwarapuram",
    "wl":2.6,
    "year":2014
  },
  {
    "latitude":16.72076,
    "longitude":80.8092,
    "district":"Eluru",
    "block":"Agiripalli",
    "village":"Vadlamanu",
    "wl":1.2,
    "year":2014
  },
  {
    "latitude":17.19884,
    "longitude":81.31883,
    "district":"Eluru",
    "block":"Buttayagudem",
    "village":"Buttayagudem",
    "wl":2.1,
    "year":2014
  },
  {
    "latitude":17.2036,
    "longitude":81.4172,
    "district":"Eluru",
    "block":"Buttayagudem",
    "village":"Gunjavaram",
    "wl":1.6,
    "year":2014
  },
  {
    "latitude":17.14538,
    "longitude":81.0098,
    "district":"Eluru",
    "block":"Chintalapudi",
    "village":"Erraguntlapalli",
    "wl":3.9,
    "year":2014
  },
  {
    "latitude":16.70425,
    "longitude":81.08515,
    "district":"Eluru",
    "block":"Eluru",
    "village":"Eluru",
    "wl":1.6,
    "year":2014
  },
  {
    "latitude":16.6886,
    "longitude":81.4654,
    "district":"Eluru",
    "block":"Ganapavaram",
    "village":"Sarepalle",
    "wl":1.1,
    "year":2014
  },
  {
    "latitude":17.12102,
    "longitude":81.30142,
    "district":"Eluru",
    "block":"Jangareddigudem",
    "village":"Jangareddygudem",
    "wl":4.6,
    "year":2014
  },
  {
    "latitude":16.5794,
    "longitude":81.28671,
    "district":"Eluru",
    "block":"Kaikalur",
    "village":"Palevada",
    "wl":0.9,
    "year":2014
  },
  {
    "latitude":16.50521,
    "longitude":81.29016,
    "district":"Eluru",
    "block":"Kalidindi",
    "village":"Kalidindi",
    "wl":1.6,
    "year":2014
  },
  {
    "latitude":17.01219,
    "longitude":81.19715,
    "district":"Eluru",
    "block":"Kamavarapukota",
    "village":"Kamavarapukota",
    "wl":1.9,
    "year":2014
  },
  {
    "latitude":17.12379,
    "longitude":81.42705,
    "district":"Eluru",
    "block":"Koyyalagudem",
    "village":"Koyyalagudem",
    "wl":7.9,
    "year":2014
  },
  {
    "latitude":17.58533,
    "longitude":81.00568,
    "district":"Eluru",
    "block":"Kukkunur",
    "village":"Amaravaram",
    "wl":0.0,
    "year":2014
  },
  {
    "latitude":17.55514,
    "longitude":81.16536,
    "district":"Eluru",
    "block":"Kukkunur",
    "village":"Kukkunur",
    "wl":2.7,
    "year":2014
  },
  {
    "latitude":16.89332,
    "longitude":80.93496,
    "district":"Eluru",
    "block":"Lingapalem",
    "village":"Dharmajigudem",
    "wl":0.5,
    "year":2014
  },
  {
    "latitude":16.54512,
    "longitude":81.20063,
    "district":"Eluru",
    "block":"Mandavalli",
    "village":"Kaikaluru",
    "wl":1.5,
    "year":2014
  },
  {
    "latitude":16.46083,
    "longitude":81.13434,
    "district":"Eluru",
    "block":"Mandavalli",
    "village":"Kanukollu",
    "wl":1.6,
    "year":2014
  },
  {
    "latitude":16.51776,
    "longitude":81.16381,
    "district":"Eluru",
    "block":"Mandavalli",
    "village":"Mandavalli",
    "wl":1.0,
    "year":2014
  },
  {
    "latitude":16.47353,
    "longitude":81.21706,
    "district":"Eluru",
    "block":"Mudinepalle",
    "village":"Bomminampadu",
    "wl":0.7,
    "year":2014
  },
  {
    "latitude":16.41075,
    "longitude":81.15158,
    "district":"Eluru",
    "block":"Mudinepalle",
    "village":"Singarayapalem",
    "wl":0.7,
    "year":2014
  },
  {
    "latitude":16.78681,
    "longitude":80.855,
    "district":"Eluru",
    "block":"Nuzvid",
    "village":"Nuzivedu",
    "wl":1.3,
    "year":2014
  },
  {
    "latitude":17.18473,
    "longitude":81.65226,
    "district":"Eluru",
    "block":"Polavaram",
    "village":"Gutala",
    "wl":7.8,
    "year":2014
  },
  {
    "latitude":17.25036,
    "longitude":81.6459,
    "district":"Eluru",
    "block":"Polavaram",
    "village":"Polavaram",
    "wl":5.8,
    "year":2014
  },
  {
    "latitude":16.8422,
    "longitude":81.3878,
    "district":"Eluru",
    "block":"Unguturu",
    "village":"Gopinadhapatnam",
    "wl":36.5,
    "year":2014
  },
  {
    "latitude":16.77608,
    "longitude":81.42575,
    "district":"Eluru",
    "block":"Unguturu",
    "village":"Rachuru",
    "wl":2.5,
    "year":2014
  },
  {
    "latitude":16.19964,
    "longitude":80.5258,
    "district":"Guntur",
    "block":"Chebrole",
    "village":"Chebrolu",
    "wl":1.1,
    "year":2014
  },
  {
    "latitude":16.22566,
    "longitude":80.5145,
    "district":"Guntur",
    "block":"Chebrole",
    "village":"Narakoduru",
    "wl":3.1,
    "year":2014
  },
  {
    "latitude":16.2601,
    "longitude":80.4703,
    "district":"Guntur",
    "block":"Guntur",
    "village":"Budampadu",
    "wl":2.1,
    "year":2014
  },
  {
    "latitude":16.26319,
    "longitude":80.42476,
    "district":"Guntur",
    "block":"Guntur",
    "village":"Etukuru",
    "wl":1.7,
    "year":2014
  },
  {
    "latitude":16.29855,
    "longitude":80.43186,
    "district":"Guntur",
    "block":"Guntur",
    "village":"Guntur",
    "wl":2.4,
    "year":2014
  },
  {
    "latitude":16.3057,
    "longitude":80.3739,
    "district":"Guntur",
    "block":"Guntur",
    "village":"Nallapadu",
    "wl":2.5,
    "year":2014
  },
  {
    "latitude":16.28664,
    "longitude":80.74958,
    "district":"Guntur",
    "block":"Kollipara",
    "village":"Kollipara",
    "wl":2.1,
    "year":2014
  },
  {
    "latitude":16.34548,
    "longitude":80.30237,
    "district":"Guntur",
    "block":"Medikonduru",
    "village":"Medikondur",
    "wl":2.4,
    "year":2014
  },
  {
    "latitude":16.08508,
    "longitude":80.32897,
    "district":"Guntur",
    "block":"Pedanandipadu",
    "village":"Varagani",
    "wl":0.4,
    "year":2014
  },
  {
    "latitude":16.28805,
    "longitude":80.25652,
    "district":"Guntur",
    "block":"Phirangipuram",
    "village":"Pirangipuram",
    "wl":1.7,
    "year":2014
  },
  {
    "latitude":16.06466,
    "longitude":80.54306,
    "district":"Guntur",
    "block":"Ponnur",
    "village":"Ponnur",
    "wl":4.0,
    "year":2014
  },
  {
    "latitude":16.18035,
    "longitude":80.33181,
    "district":"Guntur",
    "block":"Prathipadu",
    "village":"Prattipadu",
    "wl":1.1,
    "year":2014
  },
  {
    "latitude":16.45179,
    "longitude":80.37504,
    "district":"Guntur",
    "block":"Tadikonda",
    "village":"Mukkamala",
    "wl":3.8,
    "year":2014
  },
  {
    "latitude":16.36065,
    "longitude":80.39687,
    "district":"Guntur",
    "block":"Tadikonda",
    "village":"Phanidharam",
    "wl":1.7,
    "year":2014
  },
  {
    "latitude":16.40434,
    "longitude":80.40218,
    "district":"Guntur",
    "block":"Tadikonda",
    "village":"Ponnekallu",
    "wl":1.9,
    "year":2014
  },
  {
    "latitude":16.41808,
    "longitude":80.34876,
    "district":"Guntur",
    "block":"Tadikonda",
    "village":"Ravela",
    "wl":0.4,
    "year":2014
  },
  {
    "latitude":16.41654,
    "longitude":80.45335,
    "district":"Guntur",
    "block":"Tadikonda",
    "village":"Tadikonda",
    "wl":1.5,
    "year":2014
  },
  {
    "latitude":16.30323,
    "longitude":80.61891,
    "district":"Guntur",
    "block":"Tenali",
    "village":"Kolakaluru",
    "wl":0.6,
    "year":2014
  },
  {
    "latitude":16.26965,
    "longitude":80.58749,
    "district":"Guntur",
    "block":"Tenali",
    "village":"Sekuru",
    "wl":1.7,
    "year":2014
  },
  {
    "latitude":16.51444,
    "longitude":80.53159,
    "district":"Guntur",
    "block":"Thullur",
    "village":"Mandhadam",
    "wl":1.6,
    "year":2014
  },
  {
    "latitude":16.45981,
    "longitude":80.45514,
    "district":"Guntur",
    "block":"Thullur",
    "village":"Pedda Parimi",
    "wl":2.8,
    "year":2014
  },
  {
    "latitude":16.53051,
    "longitude":80.4703,
    "district":"Guntur",
    "block":"Thullur",
    "village":"Thullur",
    "wl":1.1,
    "year":2014
  },
  {
    "latitude":17.1538,
    "longitude":82.2864,
    "district":"Kakinada",
    "block":"Gollaprolu",
    "village":"Gollaprolu",
    "wl":1.7,
    "year":2014
  },
  {
    "latitude":17.0094,
    "longitude":82.2482,
    "district":"Kakinada",
    "block":"Kakinada Rural",
    "village":"Anjaneyanagar",
    "wl":1.3,
    "year":2014
  },
  {
    "latitude":16.985,
    "longitude":82.2757,
    "district":"Kakinada",
    "block":"Kakinada Rural",
    "village":"Fishing Horbour",
    "wl":0.8,
    "year":2014
  },
  {
    "latitude":16.9248,
    "longitude":82.236,
    "district":"Kakinada",
    "block":"Kakinada Rural",
    "village":"Kasinadhapuram",
    "wl":1.9,
    "year":2014
  },
  {
    "latitude":16.9557,
    "longitude":82.1893,
    "district":"Kakinada",
    "block":"Kakinada Rural",
    "village":"Repuru",
    "wl":1.2,
    "year":2014
  },
  {
    "latitude":17.0137,
    "longitude":82.2835,
    "district":"Kakinada",
    "block":"Kakinada Rural",
    "village":"Vakalpudi",
    "wl":0.4,
    "year":2014
  },
  {
    "latitude":16.9503,
    "longitude":82.237,
    "district":"Kakinada",
    "block":"Kakinada Urban",
    "village":"Santhacheruvu",
    "wl":1.4,
    "year":2014
  },
  {
    "latitude":17.2,
    "longitude":82.1018,
    "district":"Kakinada",
    "block":"Kirlampudi",
    "village":"Burugupudi",
    "wl":8.2,
    "year":2014
  },
  {
    "latitude":17.1007,
    "longitude":82.2462,
    "district":"Kakinada",
    "block":"Pithapuram",
    "village":"Pithapuram",
    "wl":0.9,
    "year":2014
  },
  {
    "latitude":17.2302,
    "longitude":82.1986,
    "district":"Kakinada",
    "block":"Prathipadu",
    "village":"Pratipadu",
    "wl":2.6,
    "year":2014
  },
  {
    "latitude":17.2429,
    "longitude":82.3314,
    "district":"Kakinada",
    "block":"Sankhavaram",
    "village":"Kattipudi",
    "wl":2.3,
    "year":2014
  },
  {
    "latitude":16.8854,
    "longitude":82.2339,
    "district":"Kakinada",
    "block":"Thallarevu",
    "village":"Chollangi",
    "wl":1.0,
    "year":2014
  },
  {
    "latitude":16.7828,
    "longitude":82.2303,
    "district":"Kakinada",
    "block":"Thallarevu",
    "village":"Tallarevu",
    "wl":2.2,
    "year":2014
  },
  {
    "latitude":16.7529,
    "longitude":82.2289,
    "district":"Kakinada",
    "block":"Thallarevu",
    "village":"Thurpet",
    "wl":1.5,
    "year":2014
  },
  {
    "latitude":17.2496,
    "longitude":82.3708,
    "district":"Kakinada",
    "block":"Thondangi",
    "village":"Tammayyapeta",
    "wl":0.6,
    "year":2014
  },
  {
    "latitude":17.2921,
    "longitude":82.4927,
    "district":"Kakinada",
    "block":"Tuni",
    "village":"Hamsavaram",
    "wl":0.5,
    "year":2014
  },
  {
    "latitude":17.307,
    "longitude":82.4429,
    "district":"Kakinada",
    "block":"Tuni",
    "village":"Tetagunda",
    "wl":2.3,
    "year":2014
  },
  {
    "latitude":17.0805,
    "longitude":82.3355,
    "district":"Kakinada",
    "block":"U.Kothapalle",
    "village":"Uppada",
    "wl":0.6,
    "year":2014
  },
  {
    "latitude":17.35472,
    "longitude":82.11482,
    "district":"Kakinada",
    "block":"Yeleswaram",
    "village":"Gontuvanipalem",
    "wl":2.5,
    "year":2014
  },
  {
    "latitude":16.02086,
    "longitude":80.91149,
    "district":"Krishna",
    "block":"Avanigadda",
    "village":"Avanigadda",
    "wl":3.6,
    "year":2014
  },
  {
    "latitude":16.36972,
    "longitude":81.27216,
    "district":"Krishna",
    "block":"Bantumilli",
    "village":"Bantumilli1",
    "wl":1.5,
    "year":2014
  },
  {
    "latitude":16.40907,
    "longitude":81.20812,
    "district":"Krishna",
    "block":"Bantumilli",
    "village":"Mallapparajgudem",
    "wl":0.9,
    "year":2014
  },
  {
    "latitude":16.3092,
    "longitude":81.212,
    "district":"Krishna",
    "block":"Bantumilli",
    "village":"Munjuluru",
    "wl":2.1,
    "year":2014
  },
  {
    "latitude":16.11859,
    "longitude":80.9394,
    "district":"Krishna",
    "block":"Challapalli",
    "village":"Challapalli",
    "wl":0.8,
    "year":2014
  },
  {
    "latitude":16.1347,
    "longitude":80.9856,
    "district":"Krishna",
    "block":"Challapalli",
    "village":"Lankapalli",
    "wl":1.3,
    "year":2014
  },
  {
    "latitude":16.38194,
    "longitude":81.03434,
    "district":"Krishna",
    "block":"Gudivada",
    "village":"Angaluru",
    "wl":1.5,
    "year":2014
  },
  {
    "latitude":16.34357,
    "longitude":81.05475,
    "district":"Krishna",
    "block":"Gudlavalleru",
    "village":"Gudlavalleru",
    "wl":3.8,
    "year":2014
  },
  {
    "latitude":16.22013,
    "longitude":81.08494,
    "district":"Krishna",
    "block":"Guduru",
    "village":"Gudur",
    "wl":1.2,
    "year":2014
  },
  {
    "latitude":16.00734,
    "longitude":81.02759,
    "district":"Krishna",
    "block":"Koduru",
    "village":"Koduru",
    "wl":1.5,
    "year":2014
  },
  {
    "latitude":15.97411,
    "longitude":81.00007,
    "district":"Krishna",
    "block":"Koduru",
    "village":"Mandapakala",
    "wl":1.9,
    "year":2014
  },
  {
    "latitude":16.20014,
    "longitude":81.11369,
    "district":"Krishna",
    "block":"Machilipatnam",
    "village":"Sultan Nagar",
    "wl":1.4,
    "year":2014
  },
  {
    "latitude":16.26568,
    "longitude":80.94375,
    "district":"Krishna",
    "block":"Movva",
    "village":"Ayyanki",
    "wl":1.4,
    "year":2014
  },
  {
    "latitude":16.2269,
    "longitude":80.9129,
    "district":"Krishna",
    "block":"Movva",
    "village":"Movva",
    "wl":1.5,
    "year":2014
  },
  {
    "latitude":15.94947,
    "longitude":80.92235,
    "district":"Krishna",
    "block":"Nagayalanka",
    "village":"Marripalem",
    "wl":2.5,
    "year":2014
  },
  {
    "latitude":16.51948,
    "longitude":81.07816,
    "district":"Krishna",
    "block":"Nandivada",
    "village":"Polukonda",
    "wl":1.3,
    "year":2014
  },
  {
    "latitude":16.3311,
    "longitude":80.92607,
    "district":"Krishna",
    "block":"Pamarru",
    "village":"Kurumaddali",
    "wl":2.0,
    "year":2014
  },
  {
    "latitude":16.27474,
    "longitude":81.0052,
    "district":"Krishna",
    "block":"Pamarru",
    "village":"Nimmakuru",
    "wl":1.4,
    "year":2014
  },
  {
    "latitude":16.28296,
    "longitude":81.12932,
    "district":"Krishna",
    "block":"Pedana",
    "village":"Nadupur",
    "wl":1.1,
    "year":2014
  },
  {
    "latitude":16.25839,
    "longitude":81.14948,
    "district":"Krishna",
    "block":"Pedana",
    "village":"Pedana",
    "wl":1.3,
    "year":2014
  },
  {
    "latitude":16.44202,
    "longitude":80.91022,
    "district":"Krishna",
    "block":"Pedaparupudi",
    "village":"Venkatapragada",
    "wl":2.9,
    "year":2014
  },
  {
    "latitude":16.39206,
    "longitude":80.81895,
    "district":"Krishna",
    "block":"Vuyyuru",
    "village":"Akunuru",
    "wl":1.8,
    "year":2014
  },
  {
    "latitude":16.35812,
    "longitude":80.88031,
    "district":"Krishna",
    "block":"Vuyyuru",
    "village":"Tadanki",
    "wl":2.0,
    "year":2014
  },
  {
    "latitude":15.5607,
    "longitude":77.22214,
    "district":"Kurnool",
    "block":"Adoni",
    "village":"Naganathanahalli",
    "wl":4.5,
    "year":2014
  },
  {
    "latitude":15.5942,
    "longitude":77.5967,
    "district":"Kurnool",
    "block":"Devanakonda",
    "village":"Karivemula",
    "wl":1.6,
    "year":2014
  },
  {
    "latitude":15.7079,
    "longitude":77.6142,
    "district":"Kurnool",
    "block":"Gonegandla",
    "village":"Gonegandla",
    "wl":2.2,
    "year":2014
  },
  {
    "latitude":15.7117,
    "longitude":77.5963,
    "district":"Kurnool",
    "block":"Gonegandla",
    "village":"Gonegondla",
    "wl":1.3,
    "year":2014
  },
  {
    "latitude":15.7726,
    "longitude":77.8074,
    "district":"Kurnool",
    "block":"Gudur",
    "village":"Gudur",
    "wl":8.1,
    "year":2014
  },
  {
    "latitude":15.3323,
    "longitude":77.1262,
    "district":"Kurnool",
    "block":"Halaharvi",
    "village":"Bapuram",
    "wl":4.3,
    "year":2014
  },
  {
    "latitude":15.36012,
    "longitude":77.0639,
    "district":"Kurnool",
    "block":"Halaharvi",
    "village":"Gulyam",
    "wl":6.9,
    "year":2014
  },
  {
    "latitude":15.3012,
    "longitude":77.18819,
    "district":"Kurnool",
    "block":"Halaharvi",
    "village":"Haradgiri",
    "wl":11.2,
    "year":2014
  },
  {
    "latitude":15.4321,
    "longitude":77.1222,
    "district":"Kurnool",
    "block":"Holagunda",
    "village":"Sullavai",
    "wl":0.5,
    "year":2014
  },
  {
    "latitude":15.6857,
    "longitude":77.7736,
    "district":"Kurnool",
    "block":"Kodumur",
    "village":"Kodumuru",
    "wl":5.7,
    "year":2014
  },
  {
    "latitude":15.8432,
    "longitude":77.1147,
    "district":"Kurnool",
    "block":"Kowthalam",
    "village":"Podalakunta",
    "wl":3.7,
    "year":2014
  },
  {
    "latitude":15.9354,
    "longitude":77.3561,
    "district":"Kurnool",
    "block":"Mantralayam",
    "village":"Madhavaram",
    "wl":3.6,
    "year":2014
  },
  {
    "latitude":15.9478,
    "longitude":77.3014,
    "district":"Kurnool",
    "block":"Mantralayam",
    "village":"Tungabhadra",
    "wl":4.7,
    "year":2014
  },
  {
    "latitude":15.6858,
    "longitude":78.1758,
    "district":"Kurnool",
    "block":"Orvakal",
    "village":"Orvakallu",
    "wl":2.9,
    "year":2014
  },
  {
    "latitude":15.5531,
    "longitude":77.9269,
    "district":"Kurnool",
    "block":"Veldurthi",
    "village":"Veldurthy",
    "wl":1.8,
    "year":2014
  },
  {
    "latitude":15.546,
    "longitude":77.9251,
    "district":"Kurnool",
    "block":"Veldurthi",
    "village":"Veldurti",
    "wl":4.5,
    "year":2014
  },
  {
    "latitude":15.7568,
    "longitude":77.4583,
    "district":"Kurnool",
    "block":"Yemmiganur",
    "village":"Yemmiganur",
    "wl":6.3,
    "year":2014
  },
  {
    "latitude":15.2452,
    "longitude":78.50578,
    "district":"Nandyal",
    "block":"Allagadda",
    "village":"Battulur",
    "wl":3.1,
    "year":2014
  },
  {
    "latitude":15.87427,
    "longitude":78.57705,
    "district":"Nandyal",
    "block":"Atmakur",
    "village":"Atmakur",
    "wl":3.2,
    "year":2014
  },
  {
    "latitude":15.88315,
    "longitude":78.6544,
    "district":"Nandyal",
    "block":"Atmakur",
    "village":"Venkatapuram",
    "wl":3.3,
    "year":2014
  },
  {
    "latitude":15.31297,
    "longitude":78.22714,
    "district":"Nandyal",
    "block":"Banaganapalle",
    "village":"Banaganapalli",
    "wl":10.1,
    "year":2014
  },
  {
    "latitude":15.62604,
    "longitude":78.53436,
    "district":"Nandyal",
    "block":"Bandi Atmakur",
    "village":"Santajutur",
    "wl":1.6,
    "year":2014
  },
  {
    "latitude":15.66742,
    "longitude":78.44095,
    "district":"Nandyal",
    "block":"Gadivemula",
    "village":"Gudivemula",
    "wl":0.8,
    "year":2014
  },
  {
    "latitude":15.07472,
    "longitude":78.1078,
    "district":"Nandyal",
    "block":"Kolimigundla",
    "village":"Kolimigundla",
    "wl":6.4,
    "year":2014
  },
  {
    "latitude":15.46921,
    "longitude":78.61999,
    "district":"Nandyal",
    "block":"Mahanandi",
    "village":"Mahanandi",
    "wl":2.5,
    "year":2014
  },
  {
    "latitude":15.85667,
    "longitude":78.26411,
    "district":"Nandyal",
    "block":"Nandikotkur",
    "village":"Nandikotkur",
    "wl":2.9,
    "year":2014
  },
  {
    "latitude":15.48917,
    "longitude":78.49468,
    "district":"Nandyal",
    "block":"Nandyal",
    "village":"Nandyal",
    "wl":0.4,
    "year":2014
  },
  {
    "latitude":15.95924,
    "longitude":78.28763,
    "district":"Nandyal",
    "block":"Pagidyala",
    "village":"Moravakonda",
    "wl":0.9,
    "year":2014
  },
  {
    "latitude":15.85028,
    "longitude":78.47074,
    "district":"Nandyal",
    "block":"Pamulapadu",
    "village":"Rudravaram",
    "wl":1.2,
    "year":2014
  },
  {
    "latitude":15.45821,
    "longitude":78.3248,
    "district":"Nandyal",
    "block":"Panyam",
    "village":"Alamuru",
    "wl":4.1,
    "year":2014
  },
  {
    "latitude":15.13398,
    "longitude":78.67252,
    "district":"Nandyal",
    "block":"Rudravaram",
    "village":"Ahobilam",
    "wl":6.7,
    "year":2014
  },
  {
    "latitude":14.98822,
    "longitude":78.39186,
    "district":"Nandyal",
    "block":"Sanjamala",
    "village":"Nossam",
    "wl":6.1,
    "year":2014
  },
  {
    "latitude":16.07588,
    "longitude":78.8671,
    "district":"Nandyal",
    "block":"Srisailam",
    "village":"Srisailam",
    "wl":0.9,
    "year":2014
  },
  {
    "latitude":16.9996,
    "longitude":80.52424,
    "district":"Ntr",
    "block":"Gampalagudem",
    "village":"Gampala Gudem",
    "wl":1.4,
    "year":2014
  },
  {
    "latitude":16.95097,
    "longitude":80.05233,
    "district":"Ntr",
    "block":"Gampalagudem",
    "village":"Garikapadu",
    "wl":3.3,
    "year":2014
  },
  {
    "latitude":16.97207,
    "longitude":80.53118,
    "district":"Ntr",
    "block":"Gampalagudem",
    "village":"Veenagadapa",
    "wl":1.6,
    "year":2014
  },
  {
    "latitude":16.58959,
    "longitude":80.52203,
    "district":"Ntr",
    "block":"Ibrahimpatnam",
    "village":"Ibrahimpatnam",
    "wl":0.6,
    "year":2014
  },
  {
    "latitude":16.80788,
    "longitude":80.63011,
    "district":"Ntr",
    "block":"Mylavaram",
    "village":"Chandragudem",
    "wl":4.0,
    "year":2014
  },
  {
    "latitude":16.78926,
    "longitude":80.27355,
    "district":"Ntr",
    "block":"Nandigama",
    "village":"Annasagaram",
    "wl":3.2,
    "year":2014
  },
  {
    "latitude":16.73498,
    "longitude":80.30439,
    "district":"Ntr",
    "block":"Nandigama",
    "village":"Itavaram",
    "wl":2.4,
    "year":2014
  },
  {
    "latitude":16.87677,
    "longitude":80.74138,
    "district":"Ntr",
    "block":"Reddigudem",
    "village":"Kottareddigudem",
    "wl":4.5,
    "year":2014
  },
  {
    "latitude":17.03118,
    "longitude":80.55562,
    "district":"Ntr",
    "block":"Tiruvuru",
    "village":"Chintalapadu",
    "wl":0.6,
    "year":2014
  },
  {
    "latitude":17.05607,
    "longitude":80.63534,
    "district":"Ntr",
    "block":"Tiruvuru",
    "village":"Kakarla",
    "wl":2.9,
    "year":2014
  },
  {
    "latitude":17.11435,
    "longitude":80.6142,
    "district":"Ntr",
    "block":"Tiruvuru",
    "village":"Tiruvur",
    "wl":3.2,
    "year":2014
  },
  {
    "latitude":16.72952,
    "longitude":80.41001,
    "district":"Ntr",
    "block":"Veerullapadu",
    "village":"Jagannathapuram",
    "wl":8.1,
    "year":2014
  },
  {
    "latitude":16.96322,
    "longitude":80.64803,
    "district":"Ntr",
    "block":"Vijayawada Rural",
    "village":"A Konduru",
    "wl":3.0,
    "year":2014
  },
  {
    "latitude":16.942,
    "longitude":80.78355,
    "district":"Ntr",
    "block":"Vissannapet",
    "village":"Vissannapet",
    "wl":2.4,
    "year":2014
  },
  {
    "latitude":16.5733,
    "longitude":80.3612,
    "district":"Palnadu",
    "block":"Amaravathi",
    "village":"Amaravati",
    "wl":1.1,
    "year":2014
  },
  {
    "latitude":16.5329,
    "longitude":80.3663,
    "district":"Palnadu",
    "block":"Amaravathi",
    "village":"Narakullapadu",
    "wl":2.1,
    "year":2014
  },
  {
    "latitude":16.4941,
    "longitude":80.3645,
    "district":"Palnadu",
    "block":"Amaravathi",
    "village":"Ungutur",
    "wl":0.5,
    "year":2014
  },
  {
    "latitude":16.566,
    "longitude":80.4127,
    "district":"Palnadu",
    "block":"Amaravathi",
    "village":"Vykuntapuram",
    "wl":1.0,
    "year":2014
  },
  {
    "latitude":16.5661,
    "longitude":80.2572,
    "district":"Palnadu",
    "block":"Amaravathi",
    "village":"Zupudi",
    "wl":2.4,
    "year":2014
  },
  {
    "latitude":16.4922,
    "longitude":80.0076,
    "district":"Palnadu",
    "block":"Bellamkonda",
    "village":"Bellamkonda",
    "wl":3.9,
    "year":2014
  },
  {
    "latitude":16.1193,
    "longitude":79.6506,
    "district":"Palnadu",
    "block":"Bollapalle",
    "village":"Vellatur",
    "wl":4.1,
    "year":2014
  },
  {
    "latitude":16.0851,
    "longitude":80.1765,
    "district":"Palnadu",
    "block":"Chilakaluripet",
    "village":"Chilkaluripet",
    "wl":0.5,
    "year":2014
  },
  {
    "latitude":16.59833,
    "longitude":79.72838,
    "district":"Palnadu",
    "block":"Dachepalle",
    "village":"Dachepalle",
    "wl":3.8,
    "year":2014
  },
  {
    "latitude":16.4234,
    "longitude":79.5371,
    "district":"Palnadu",
    "block":"Durgi",
    "village":"Durgi",
    "wl":5.1,
    "year":2014
  },
  {
    "latitude":16.1491,
    "longitude":80.2048,
    "district":"Palnadu",
    "block":"Edlapadu",
    "village":"Timmapuram",
    "wl":2.0,
    "year":2014
  },
  {
    "latitude":16.558,
    "longitude":79.6325,
    "district":"Palnadu",
    "block":"Gurazala",
    "village":"Gurazala",
    "wl":0.6,
    "year":2014
  },
  {
    "latitude":16.2434,
    "longitude":79.8415,
    "district":"Palnadu",
    "block":"Ipur",
    "village":"A. Muppalla",
    "wl":1.3,
    "year":2014
  },
  {
    "latitude":16.226,
    "longitude":79.7768,
    "district":"Palnadu",
    "block":"Ipur",
    "village":"Ipur",
    "wl":0.9,
    "year":2014
  },
  {
    "latitude":16.1492,
    "longitude":79.7582,
    "district":"Palnadu",
    "block":"Ipur",
    "village":"Kocherla",
    "wl":0.8,
    "year":2014
  },
  {
    "latitude":16.5429,
    "longitude":80.1393,
    "district":"Palnadu",
    "block":"Krosuru",
    "village":"Krosur",
    "wl":1.6,
    "year":2014
  },
  {
    "latitude":16.4979,
    "longitude":80.1431,
    "district":"Palnadu",
    "block":"Krosuru",
    "village":"Pisapadu",
    "wl":3.1,
    "year":2014
  },
  {
    "latitude":16.566,
    "longitude":80.2018,
    "district":"Palnadu",
    "block":"Krosuru",
    "village":"Utukuru",
    "wl":1.6,
    "year":2014
  },
  {
    "latitude":16.5906,
    "longitude":79.9084,
    "district":"Palnadu",
    "block":"Machavaram",
    "village":"Murjampadu",
    "wl":7.9,
    "year":2014
  },
  {
    "latitude":16.5385,
    "longitude":79.9057,
    "district":"Palnadu",
    "block":"Machavaram",
    "village":"Pillutla",
    "wl":1.1,
    "year":2014
  },
  {
    "latitude":16.3067,
    "longitude":80.0833,
    "district":"Palnadu",
    "block":"Muppalla",
    "village":"Golapadu",
    "wl":3.0,
    "year":2014
  },
  {
    "latitude":16.2418,
    "longitude":80.0829,
    "district":"Palnadu",
    "block":"Narasaraopeta",
    "village":"Jonnalagadda",
    "wl":1.0,
    "year":2014
  },
  {
    "latitude":16.231,
    "longitude":80.0318,
    "district":"Palnadu",
    "block":"Narasaraopeta",
    "village":"Lingamguntla",
    "wl":1.8,
    "year":2014
  },
  {
    "latitude":16.1286,
    "longitude":80.022,
    "district":"Palnadu",
    "block":"Narasaraopeta",
    "village":"Pamidimarru",
    "wl":4.4,
    "year":2014
  },
  {
    "latitude":16.3702,
    "longitude":79.9423,
    "district":"Palnadu",
    "block":"Nekarikallu",
    "village":"Nekarikallu",
    "wl":3.6,
    "year":2014
  },
  {
    "latitude":16.12961,
    "longitude":79.86519,
    "district":"Palnadu",
    "block":"Nekarikallu",
    "village":"Velpur",
    "wl":0.5,
    "year":2014
  },
  {
    "latitude":15.9932,
    "longitude":79.6704,
    "district":"Palnadu",
    "block":"Nuzendla",
    "village":"Inovolu",
    "wl":0.5,
    "year":2014
  },
  {
    "latitude":16.5174,
    "longitude":79.8311,
    "district":"Palnadu",
    "block":"Piduguralla",
    "village":"Brahmanpalli",
    "wl":2.9,
    "year":2014
  },
  {
    "latitude":16.4306,
    "longitude":79.8322,
    "district":"Palnadu",
    "block":"Piduguralla",
    "village":"Guttikonda",
    "wl":2.5,
    "year":2014
  },
  {
    "latitude":16.5255,
    "longitude":79.7987,
    "district":"Palnadu",
    "block":"Piduguralla",
    "village":"Thummalacheruvu",
    "wl":2.2,
    "year":2014
  },
  {
    "latitude":16.4451,
    "longitude":79.791,
    "district":"Palnadu",
    "block":"Piduguralla",
    "village":"Zullakallu",
    "wl":0.8,
    "year":2014
  },
  {
    "latitude":16.4608,
    "longitude":79.9206,
    "district":"Palnadu",
    "block":"Rajupalem",
    "village":"Kondamodu",
    "wl":1.1,
    "year":2014
  },
  {
    "latitude":16.46125,
    "longitude":79.92031,
    "district":"Palnadu",
    "block":"Rajupalem",
    "village":"Kondamodu",
    "wl":1.7,
    "year":2014
  },
  {
    "latitude":16.5514,
    "longitude":79.5477,
    "district":"Palnadu",
    "block":"Rentachintala",
    "village":"Rentachintala",
    "wl":0.5,
    "year":2014
  },
  {
    "latitude":16.55819,
    "longitude":79.46019,
    "district":"Palnadu",
    "block":"Rentachintala",
    "village":"Tummurukota",
    "wl":1.2,
    "year":2014
  },
  {
    "latitude":16.21,
    "longitude":79.9133,
    "district":"Palnadu",
    "block":"Rompicherla",
    "village":"Rompicherla",
    "wl":2.1,
    "year":2014
  },
  {
    "latitude":16.2534,
    "longitude":79.9141,
    "district":"Palnadu",
    "block":"Rompicherla",
    "village":"Santagudipadu",
    "wl":2.7,
    "year":2014
  },
  {
    "latitude":16.4713,
    "longitude":80.1364,
    "district":"Palnadu",
    "block":"Sattenapalle",
    "village":"Rentapalle",
    "wl":1.7,
    "year":2014
  },
  {
    "latitude":16.4063,
    "longitude":80.1479,
    "district":"Palnadu",
    "block":"Sattenapalle",
    "village":"Sattenapalli",
    "wl":2.3,
    "year":2014
  },
  {
    "latitude":16.4084,
    "longitude":79.4054,
    "district":"Palnadu",
    "block":"Veldurthy",
    "village":"Mandadi",
    "wl":2.4,
    "year":2014
  },
  {
    "latitude":16.3043,
    "longitude":79.3263,
    "district":"Palnadu",
    "block":"Veldurthy",
    "village":"Sirigiripadu",
    "wl":4.6,
    "year":2014
  },
  {
    "latitude":16.0276,
    "longitude":79.7929,
    "district":"Palnadu",
    "block":"Vinukonda",
    "village":"Gonuguntla Varipalem",
    "wl":1.8,
    "year":2014
  },
  {
    "latitude":16.0519,
    "longitude":79.7434,
    "district":"Palnadu",
    "block":"Vinukonda",
    "village":"Vinukonda",
    "wl":2.3,
    "year":2014
  },
  {
    "latitude":18.61133,
    "longitude":83.5286,
    "district":"Parvathipuram Manyam",
    "block":"Balijipeta",
    "village":"Balajipet",
    "wl":1.6,
    "year":2014
  },
  {
    "latitude":18.59297,
    "longitude":83.53333,
    "district":"Parvathipuram Manyam",
    "block":"Balijipeta",
    "village":"Chilakalapalli",
    "wl":2.5,
    "year":2014
  },
  {
    "latitude":18.89838,
    "longitude":83.46246,
    "district":"Parvathipuram Manyam",
    "block":"Komarada",
    "village":"Komarada",
    "wl":7.2,
    "year":2014
  },
  {
    "latitude":18.81211,
    "longitude":83.44511,
    "district":"Parvathipuram Manyam",
    "block":"Komarada",
    "village":"Vikrampuram",
    "wl":2.9,
    "year":2014
  },
  {
    "latitude":18.95874,
    "longitude":83.64385,
    "district":"Parvathipuram Manyam",
    "block":"Kurupam",
    "village":"Gumma",
    "wl":3.0,
    "year":2014
  },
  {
    "latitude":18.86602,
    "longitude":83.55304,
    "district":"Parvathipuram Manyam",
    "block":"Kurupam",
    "village":"Kurupana",
    "wl":4.7,
    "year":2014
  },
  {
    "latitude":18.64645,
    "longitude":83.27307,
    "district":"Parvathipuram Manyam",
    "block":"Makkuva",
    "village":"Payakapadu",
    "wl":1.9,
    "year":2014
  },
  {
    "latitude":18.59812,
    "longitude":83.76553,
    "district":"Parvathipuram Manyam",
    "block":"Palakonda",
    "village":"Palakonda",
    "wl":5.6,
    "year":2014
  },
  {
    "latitude":18.77248,
    "longitude":83.42375,
    "district":"Parvathipuram Manyam",
    "block":"Parvathipuram",
    "village":"Parvatipuram",
    "wl":2.7,
    "year":2014
  },
  {
    "latitude":18.52449,
    "longitude":83.20765,
    "district":"Parvathipuram Manyam",
    "block":"Salur",
    "village":"Saluru",
    "wl":7.0,
    "year":2014
  },
  {
    "latitude":18.69251,
    "longitude":83.81716,
    "district":"Parvathipuram Manyam",
    "block":"Seethampeta",
    "village":"Sitampeta",
    "wl":2.8,
    "year":2014
  },
  {
    "latitude":18.67715,
    "longitude":83.37247,
    "district":"Parvathipuram Manyam",
    "block":"Seethanagaram",
    "village":"Appayyapet",
    "wl":2.3,
    "year":2014
  },
  {
    "latitude":18.68654,
    "longitude":83.61533,
    "district":"Parvathipuram Manyam",
    "block":"Veeraghattam",
    "village":"Veeraghattam",
    "wl":1.2,
    "year":2014
  },
  {
    "latitude":15.5579,
    "longitude":79.107,
    "district":"Prakasam",
    "block":"Bestavaripeta",
    "village":"Somavaripeta",
    "wl":3.7,
    "year":2014
  },
  {
    "latitude":15.1831,
    "longitude":79.2747,
    "district":"Prakasam",
    "block":"Chandra Sekhara PuramC.S. Puram",
    "village":null,
    "wl":5.2,
    "year":2014
  },
  {
    "latitude":15.58835,
    "longitude":79.84234,
    "district":"Prakasam",
    "block":"Chimakurthi",
    "village":"Chimakurti",
    "wl":2.7,
    "year":2014
  },
  {
    "latitude":15.5622,
    "longitude":79.0881,
    "district":"Prakasam",
    "block":"Cumbum",
    "village":"Porumamilapalli",
    "wl":1.9,
    "year":2014
  },
  {
    "latitude":15.5228,
    "longitude":78.9861,
    "district":"Prakasam",
    "block":"Cumbum",
    "village":"Turumella",
    "wl":3.9,
    "year":2014
  },
  {
    "latitude":15.7625,
    "longitude":79.6767,
    "district":"Prakasam",
    "block":"Darsi",
    "village":"Darsi",
    "wl":3.2,
    "year":2014
  },
  {
    "latitude":15.831,
    "longitude":79.4872,
    "district":"Prakasam",
    "block":"Donakonda",
    "village":"Donakonda",
    "wl":1.4,
    "year":2014
  },
  {
    "latitude":15.9236,
    "longitude":79.5942,
    "district":"Prakasam",
    "block":"Kurichedu",
    "village":"Vengaiahpalem",
    "wl":1.4,
    "year":2014
  },
  {
    "latitude":15.6121,
    "longitude":80.0259,
    "district":"Prakasam",
    "block":"Maddipadu",
    "village":"Maddipadu",
    "wl":4.7,
    "year":2014
  },
  {
    "latitude":15.80735,
    "longitude":79.7807,
    "district":"Prakasam",
    "block":"Mundlamuru",
    "village":"Voolagallu",
    "wl":2.2,
    "year":2014
  },
  {
    "latitude":15.60837,
    "longitude":80.09308,
    "district":"Prakasam",
    "block":"Naguluppala Padu",
    "village":"Chedalavada",
    "wl":2.5,
    "year":2014
  },
  {
    "latitude":15.6753,
    "longitude":80.1639,
    "district":"Prakasam",
    "block":"Naguluppala Padu",
    "village":"Uppugundur",
    "wl":1.7,
    "year":2014
  },
  {
    "latitude":15.50935,
    "longitude":80.0473,
    "district":"Prakasam",
    "block":"Ongole",
    "village":"Ongole",
    "wl":1.8,
    "year":2014
  },
  {
    "latitude":15.1126,
    "longitude":79.5663,
    "district":"Prakasam",
    "block":"Pamur",
    "village":"Ayyavarepalli",
    "wl":7.5,
    "year":2014
  },
  {
    "latitude":15.1152,
    "longitude":79.6387,
    "district":"Prakasam",
    "block":"Pamur",
    "village":"Malakonda",
    "wl":10.8,
    "year":2014
  },
  {
    "latitude":15.1739,
    "longitude":79.4433,
    "district":"Prakasam",
    "block":"Pamur",
    "village":"Veggampalli",
    "wl":8.5,
    "year":2014
  },
  {
    "latitude":15.6825,
    "longitude":79.6461,
    "district":"Prakasam",
    "block":"Podili",
    "village":"Oneguruvaipalem",
    "wl":3.4,
    "year":2014
  },
  {
    "latitude":15.5933,
    "longitude":79.7267,
    "district":"Prakasam",
    "block":"Podili",
    "village":"Tallamalla",
    "wl":1.9,
    "year":2014
  },
  {
    "latitude":15.2486,
    "longitude":79.8408,
    "district":"Prakasam",
    "block":"Ponnaluru",
    "village":"Muttarasupalem",
    "wl":6.2,
    "year":2014
  },
  {
    "latitude":15.30291,
    "longitude":79.7413,
    "district":"Prakasam",
    "block":"Ponnaluru",
    "village":"Venkupalem",
    "wl":5.7,
    "year":2014
  },
  {
    "latitude":15.5461,
    "longitude":79.9394,
    "district":"Prakasam",
    "block":"Santhanuthala Padu",
    "village":"Santanutalapadu",
    "wl":4.8,
    "year":2014
  },
  {
    "latitude":15.5899,
    "longitude":79.2755,
    "district":"Prakasam",
    "block":"Tarlupadu",
    "village":"Tadivaripalli",
    "wl":12.8,
    "year":2014
  },
  {
    "latitude":15.9267,
    "longitude":79.3964,
    "district":"Prakasam",
    "block":"Tripuranthakam",
    "village":"Gollapalli",
    "wl":5.2,
    "year":2014
  },
  {
    "latitude":16.01712,
    "longitude":79.56061,
    "district":"Prakasam",
    "block":"Tripuranthakam",
    "village":"Guttalaumadivrm",
    "wl":4.4,
    "year":2014
  },
  {
    "latitude":14.73338,
    "longitude":80.09681,
    "district":"Sri Potti Sriramulu Nellore",
    "block":"Allur",
    "village":"Isakapalli",
    "wl":2.4,
    "year":2014
  },
  {
    "latitude":14.64637,
    "longitude":79.61362,
    "district":"Sri Potti Sriramulu Nellore",
    "block":"Atmakur",
    "village":"Atmakur",
    "wl":5.3,
    "year":2014
  },
  {
    "latitude":14.67953,
    "longitude":79.53852,
    "district":"Sri Potti Sriramulu Nellore",
    "block":"Atmakur",
    "village":"Karatamoadu",
    "wl":3.4,
    "year":2014
  },
  {
    "latitude":14.61695,
    "longitude":79.67268,
    "district":"Sri Potti Sriramulu Nellore",
    "block":"Atmakur",
    "village":"Vasili",
    "wl":3.7,
    "year":2014
  },
  {
    "latitude":14.79097,
    "longitude":79.99968,
    "district":"Sri Potti Sriramulu Nellore",
    "block":"Bogole",
    "village":"Kada Nutala",
    "wl":2.2,
    "year":2014
  },
  {
    "latitude":14.44264,
    "longitude":79.60458,
    "district":"Sri Potti Sriramulu Nellore",
    "block":"Chejerla",
    "village":"Aduripalli",
    "wl":14.4,
    "year":2014
  },
  {
    "latitude":14.51642,
    "longitude":79.57495,
    "district":"Sri Potti Sriramulu Nellore",
    "block":"Chejerla",
    "village":"Bodipadu",
    "wl":1.0,
    "year":2014
  },
  {
    "latitude":14.49425,
    "longitude":79.51952,
    "district":"Sri Potti Sriramulu Nellore",
    "block":"Chejerla",
    "village":"Nagulavellaturu",
    "wl":1.7,
    "year":2014
  },
  {
    "latitude":14.68174,
    "longitude":79.97377,
    "district":"Sri Potti Sriramulu Nellore",
    "block":"Dagadarthi",
    "village":"Sunnapubatti",
    "wl":2.3,
    "year":2014
  },
  {
    "latitude":14.8545,
    "longitude":79.45924,
    "district":"Sri Potti Sriramulu Nellore",
    "block":"Duttalur",
    "village":"Brehmeshwaram",
    "wl":8.5,
    "year":2014
  },
  {
    "latitude":14.8059,
    "longitude":79.34457,
    "district":"Sri Potti Sriramulu Nellore",
    "block":"Duttalur",
    "village":"Nandipadu",
    "wl":4.9,
    "year":2014
  },
  {
    "latitude":14.86425,
    "longitude":79.88461,
    "district":"Sri Potti Sriramulu Nellore",
    "block":"Jaladanki",
    "village":"Thommidho Mile",
    "wl":0.8,
    "year":2014
  },
  {
    "latitude":14.9103,
    "longitude":79.68415,
    "district":"Sri Potti Sriramulu Nellore",
    "block":"Kaligiri",
    "village":"Chinna Annaluru",
    "wl":5.4,
    "year":2014
  },
  {
    "latitude":14.82872,
    "longitude":79.69651,
    "district":"Sri Potti Sriramulu Nellore",
    "block":"Kaligiri",
    "village":"Kaligiri",
    "wl":7.4,
    "year":2014
  },
  {
    "latitude":14.5113,
    "longitude":79.41278,
    "district":"Sri Potti Sriramulu Nellore",
    "block":"Kaluvoya",
    "village":"Kaluvaya",
    "wl":3.5,
    "year":2014
  },
  {
    "latitude":15.21853,
    "longitude":79.9115,
    "district":"Sri Potti Sriramulu Nellore",
    "block":"Kandukur",
    "village":"Kandukur",
    "wl":1.5,
    "year":2014
  },
  {
    "latitude":14.90866,
    "longitude":79.99386,
    "district":"Sri Potti Sriramulu Nellore",
    "block":"Kavali",
    "village":"Kavali",
    "wl":1.6,
    "year":2014
  },
  {
    "latitude":14.55709,
    "longitude":79.98958,
    "district":"Sri Potti Sriramulu Nellore",
    "block":"Kodavalur",
    "village":"North Rajupalem",
    "wl":0.8,
    "year":2014
  },
  {
    "latitude":14.99231,
    "longitude":79.68212,
    "district":"Sri Potti Sriramulu Nellore",
    "block":"Kondapuram",
    "village":"Kondapuram",
    "wl":4.1,
    "year":2014
  },
  {
    "latitude":14.50273,
    "longitude":79.98525,
    "district":"Sri Potti Sriramulu Nellore",
    "block":"Kovur",
    "village":"Kovvuru",
    "wl":1.6,
    "year":2014
  },
  {
    "latitude":14.19191,
    "longitude":79.87183,
    "district":"Sri Potti Sriramulu Nellore",
    "block":"Manubolu",
    "village":"Manubolu",
    "wl":6.0,
    "year":2014
  },
  {
    "latitude":14.71863,
    "longitude":79.22008,
    "district":"Sri Potti Sriramulu Nellore",
    "block":"Marripadu",
    "village":"Bata",
    "wl":2.5,
    "year":2014
  },
  {
    "latitude":14.34904,
    "longitude":80.06427,
    "district":"Sri Potti Sriramulu Nellore",
    "block":"Muthukur",
    "village":"Brahmadevam",
    "wl":1.8,
    "year":2014
  },
  {
    "latitude":14.29006,
    "longitude":80.09472,
    "district":"Sri Potti Sriramulu Nellore",
    "block":"Muthukur",
    "village":"Muthukuru",
    "wl":2.1,
    "year":2014
  },
  {
    "latitude":14.4366,
    "longitude":79.96418,
    "district":"Sri Potti Sriramulu Nellore",
    "block":"Nellore Rural",
    "village":"Nellore",
    "wl":5.7,
    "year":2014
  },
  {
    "latitude":14.38095,
    "longitude":79.73099,
    "district":"Sri Potti Sriramulu Nellore",
    "block":"Podalakur",
    "village":"Podalakur",
    "wl":8.4,
    "year":2014
  },
  {
    "latitude":14.42992,
    "longitude":79.76156,
    "district":"Sri Potti Sriramulu Nellore",
    "block":"Podalakur",
    "village":"Shanti Nagar",
    "wl":0.2,
    "year":2014
  },
  {
    "latitude":14.51794,
    "longitude":79.7661,
    "district":"Sri Potti Sriramulu Nellore",
    "block":"Podalakur",
    "village":"Tatiparthi",
    "wl":2.2,
    "year":2014
  },
  {
    "latitude":14.34283,
    "longitude":79.4717,
    "district":"Sri Potti Sriramulu Nellore",
    "block":"Rapur",
    "village":"Penubarti",
    "wl":8.3,
    "year":2014
  },
  {
    "latitude":14.20146,
    "longitude":79.53513,
    "district":"Sri Potti Sriramulu Nellore",
    "block":"Rapur",
    "village":"Rapur",
    "wl":4.3,
    "year":2014
  },
  {
    "latitude":14.58751,
    "longitude":79.7432,
    "district":"Sri Potti Sriramulu Nellore",
    "block":"Sangam",
    "village":"Sangam",
    "wl":0.8,
    "year":2014
  },
  {
    "latitude":14.87614,
    "longitude":79.31101,
    "district":"Sri Potti Sriramulu Nellore",
    "block":"Udayagiri",
    "village":"Udayagiri",
    "wl":12.4,
    "year":2014
  },
  {
    "latitude":15.11691,
    "longitude":80.00647,
    "district":"Sri Potti Sriramulu Nellore",
    "block":"Ulavapadu",
    "village":"Chagollu",
    "wl":4.3,
    "year":2014
  },
  {
    "latitude":15.1631,
    "longitude":80.0091,
    "district":"Sri Potti Sriramulu Nellore",
    "block":"Ulavapadu",
    "village":"Ulavapadu",
    "wl":2.2,
    "year":2014
  },
  {
    "latitude":14.29116,
    "longitude":79.96563,
    "district":"Sri Potti Sriramulu Nellore",
    "block":"Venkatachalam",
    "village":"Sarvepalli",
    "wl":1.8,
    "year":2014
  },
  {
    "latitude":14.32889,
    "longitude":79.92748,
    "district":"Sri Potti Sriramulu Nellore",
    "block":"Venkatachalam",
    "village":"Venkatachalam",
    "wl":1.7,
    "year":2014
  },
  {
    "latitude":14.6136,
    "longitude":80.0472,
    "district":"Sri Potti Sriramulu Nellore",
    "block":"Vidavalur",
    "village":"Choukacherla",
    "wl":0.1,
    "year":2014
  },
  {
    "latitude":14.63985,
    "longitude":80.14294,
    "district":"Sri Potti Sriramulu Nellore",
    "block":"Vidavalur",
    "village":"Ramathirdam",
    "wl":2.7,
    "year":2014
  },
  {
    "latitude":15.17841,
    "longitude":79.8179,
    "district":"Sri Potti Sriramulu Nellore",
    "block":"Voletivari Palem",
    "village":"Pokur",
    "wl":2.8,
    "year":2014
  },
  {
    "latitude":13.9605,
    "longitude":77.6761,
    "district":"Sri Sathya Sai",
    "block":"Amarapuram",
    "village":"Palasamudram",
    "wl":0.9,
    "year":2014
  },
  {
    "latitude":14.27033,
    "longitude":77.6254,
    "district":"Sri Sathya Sai",
    "block":"Chennekothapalle",
    "village":"Chenna Kothapalli",
    "wl":5.1,
    "year":2014
  },
  {
    "latitude":14.4138,
    "longitude":77.71609,
    "district":"Sri Sathya Sai",
    "block":"Dharmavaram",
    "village":"Dharmavaram",
    "wl":1.8,
    "year":2014
  },
  {
    "latitude":13.9738,
    "longitude":77.1648,
    "district":"Sri Sathya Sai",
    "block":"Gudibanda",
    "village":"Budipalli",
    "wl":8.9,
    "year":2014
  },
  {
    "latitude":13.956,
    "longitude":77.1083,
    "district":"Sri Sathya Sai",
    "block":"Gudibanda",
    "village":"Palaram",
    "wl":6.8,
    "year":2014
  },
  {
    "latitude":14.194,
    "longitude":78.1656,
    "district":"Sri Sathya Sai",
    "block":"Kadiri",
    "village":"Alampur",
    "wl":1.8,
    "year":2014
  },
  {
    "latitude":14.1031,
    "longitude":78.0998,
    "district":"Sri Sathya Sai",
    "block":"Kadiri",
    "village":"Muthyalacherevu",
    "wl":0.7,
    "year":2014
  },
  {
    "latitude":13.7752,
    "longitude":77.6117,
    "district":"Sri Sathya Sai",
    "block":"Lepakshi",
    "village":"Kanchisamudram",
    "wl":3.0,
    "year":2014
  },
  {
    "latitude":13.9411,
    "longitude":77.276,
    "district":"Sri Sathya Sai",
    "block":"Madakasira",
    "village":"Madakasira",
    "wl":1.0,
    "year":2014
  },
  {
    "latitude":14.3549,
    "longitude":78.0366,
    "district":"Sri Sathya Sai",
    "block":"Mudigubba",
    "village":"Adivi Brahmanapalli",
    "wl":0.7,
    "year":2014
  },
  {
    "latitude":14.27,
    "longitude":78.0575,
    "district":"Sri Sathya Sai",
    "block":"Mudigubba",
    "village":"Malakavemula",
    "wl":1.7,
    "year":2014
  },
  {
    "latitude":13.987,
    "longitude":78.1878,
    "district":"Sri Sathya Sai",
    "block":"Nallacheruvu",
    "village":"Nalla Cheruvu",
    "wl":13.8,
    "year":2014
  },
  {
    "latitude":14.04485,
    "longitude":78.0403,
    "district":"Sri Sathya Sai",
    "block":"Obuladevarecheruvu",
    "village":"Ingaluru",
    "wl":3.5,
    "year":2014
  },
  {
    "latitude":14.0217,
    "longitude":77.9952,
    "district":"Sri Sathya Sai",
    "block":"Obuladevarecheruvu",
    "village":"O.D.Cheruvu",
    "wl":13.5,
    "year":2014
  },
  {
    "latitude":13.9425,
    "longitude":77.9345,
    "district":"Sri Sathya Sai",
    "block":"Obuladevarecheruvu",
    "village":"Tangdikunta",
    "wl":10.0,
    "year":2014
  },
  {
    "latitude":14.0863,
    "longitude":77.5976,
    "district":"Sri Sathya Sai",
    "block":"Penukonda",
    "village":"Penukonda",
    "wl":6.4,
    "year":2014
  },
  {
    "latitude":14.1377,
    "longitude":77.9099,
    "district":"Sri Sathya Sai",
    "block":"Puttaparthi",
    "village":"Kambalaparthi",
    "wl":2.7,
    "year":2014
  },
  {
    "latitude":13.8768,
    "longitude":77.1462,
    "district":"Sri Sathya Sai",
    "block":"Rolla",
    "village":"Kothapalam",
    "wl":3.0,
    "year":2014
  },
  {
    "latitude":13.8414,
    "longitude":77.1054,
    "district":"Sri Sathya Sai",
    "block":"Rolla",
    "village":"Rolla",
    "wl":13.3,
    "year":2014
  },
  {
    "latitude":14.2421,
    "longitude":78.25569,
    "district":"Sri Sathya Sai",
    "block":"Talupula",
    "village":"Talapula",
    "wl":9.0,
    "year":2014
  },
  {
    "latitude":13.9171,
    "longitude":78.196,
    "district":"Sri Sathya Sai",
    "block":"Tanakal",
    "village":"Tanakallu",
    "wl":8.3,
    "year":2014
  },
  {
    "latitude":18.41665,
    "longitude":83.90407,
    "district":"Srikakulam",
    "block":"Amadalavalasa",
    "village":"Amudalavalasa",
    "wl":3.8,
    "year":2014
  },
  {
    "latitude":18.3298,
    "longitude":84.05194,
    "district":"Srikakulam",
    "block":"Gara",
    "village":"Gara",
    "wl":4.9,
    "year":2014
  },
  {
    "latitude":18.3428,
    "longitude":84.1225,
    "district":"Srikakulam",
    "block":"Gara",
    "village":"Kalingapatnam",
    "wl":2.4,
    "year":2014
  },
  {
    "latitude":18.29574,
    "longitude":83.97742,
    "district":"Srikakulam",
    "block":"Gara",
    "village":"Sallapeta",
    "wl":2.4,
    "year":2014
  },
  {
    "latitude":18.2724,
    "longitude":84.00281,
    "district":"Srikakulam",
    "block":"Gara",
    "village":"Srikurmam",
    "wl":2.6,
    "year":2014
  },
  {
    "latitude":18.69371,
    "longitude":83.97065,
    "district":"Srikakulam",
    "block":"Hiramandalam",
    "village":"Gotta",
    "wl":1.6,
    "year":2014
  },
  {
    "latitude":18.67521,
    "longitude":83.94893,
    "district":"Srikakulam",
    "block":"Hiramandalam",
    "village":"Heeramandalam",
    "wl":2.5,
    "year":2014
  },
  {
    "latitude":19.11838,
    "longitude":84.68646,
    "district":"Srikakulam",
    "block":"Ichapuram",
    "village":"Ichapuram",
    "wl":1.6,
    "year":2014
  },
  {
    "latitude":18.50932,
    "longitude":84.06321,
    "district":"Srikakulam",
    "block":"Jalumuru",
    "village":"Chalavaripeta",
    "wl":2.7,
    "year":2014
  },
  {
    "latitude":18.98366,
    "longitude":84.58468,
    "district":"Srikakulam",
    "block":"Kanchili",
    "village":"Kanchili",
    "wl":5.3,
    "year":2014
  },
  {
    "latitude":18.55868,
    "longitude":84.18418,
    "district":"Srikakulam",
    "block":"Kotabommili",
    "village":"Tharli Bodapadu",
    "wl":4.2,
    "year":2014
  },
  {
    "latitude":18.77251,
    "longitude":83.88449,
    "district":"Srikakulam",
    "block":"Kotturu",
    "village":"Kotturu",
    "wl":4.8,
    "year":2014
  },
  {
    "latitude":18.23309,
    "longitude":83.74802,
    "district":"Srikakulam",
    "block":"Laveru",
    "village":"Bejjipuram",
    "wl":3.9,
    "year":2014
  },
  {
    "latitude":18.84549,
    "longitude":84.50551,
    "district":"Srikakulam",
    "block":"Mandasa",
    "village":"Haripuram",
    "wl":1.8,
    "year":2014
  },
  {
    "latitude":18.77424,
    "longitude":84.17358,
    "district":"Srikakulam",
    "block":"Meliaputti",
    "village":"Meliaputti",
    "wl":1.3,
    "year":2014
  },
  {
    "latitude":18.75953,
    "longitude":84.16202,
    "district":"Srikakulam",
    "block":"Meliaputti",
    "village":"Pedda Padmapuram",
    "wl":3.6,
    "year":2014
  },
  {
    "latitude":18.65634,
    "longitude":84.29862,
    "district":"Srikakulam",
    "block":"Nandigam",
    "village":"Nandigam",
    "wl":2.0,
    "year":2014
  },
  {
    "latitude":18.63045,
    "longitude":84.36011,
    "district":"Srikakulam",
    "block":"Nandigam",
    "village":"Pata Tekkali",
    "wl":2.7,
    "year":2014
  },
  {
    "latitude":18.41926,
    "longitude":84.04795,
    "district":"Srikakulam",
    "block":"Narasannapeta",
    "village":"Narasannapeta",
    "wl":3.5,
    "year":2014
  },
  {
    "latitude":18.75704,
    "longitude":84.41747,
    "district":"Srikakulam",
    "block":"Palasa",
    "village":"Palasa",
    "wl":3.1,
    "year":2014
  },
  {
    "latitude":18.73941,
    "longitude":84.3319,
    "district":"Srikakulam",
    "block":"Palasa",
    "village":"Tekkalipatnam",
    "wl":2.0,
    "year":2014
  },
  {
    "latitude":18.75142,
    "longitude":84.09409,
    "district":"Srikakulam",
    "block":"Pathapatnam",
    "village":"Patapatnam",
    "wl":2.4,
    "year":2014
  },
  {
    "latitude":18.35559,
    "longitude":83.75528,
    "district":"Srikakulam",
    "block":"Ponduru",
    "village":"Ponduru",
    "wl":2.8,
    "year":2014
  },
  {
    "latitude":18.14667,
    "longitude":83.62835,
    "district":"Srikakulam",
    "block":"Ranastalam",
    "village":"Phidi Bheemavaram",
    "wl":1.6,
    "year":2014
  },
  {
    "latitude":18.5781,
    "longitude":84.05364,
    "district":"Srikakulam",
    "block":"Saravakota",
    "village":"Aldu",
    "wl":2.3,
    "year":2014
  },
  {
    "latitude":18.88136,
    "longitude":84.59152,
    "district":"Srikakulam",
    "block":"Sompeta",
    "village":"Baruva",
    "wl":1.9,
    "year":2014
  },
  {
    "latitude":18.9059,
    "longitude":84.55421,
    "district":"Srikakulam",
    "block":"Sompeta",
    "village":"Korlam",
    "wl":1.7,
    "year":2014
  },
  {
    "latitude":18.9391,
    "longitude":84.58572,
    "district":"Srikakulam",
    "block":"Sompeta",
    "village":"Sompet",
    "wl":4.1,
    "year":2014
  },
  {
    "latitude":18.28904,
    "longitude":83.91594,
    "district":"Srikakulam",
    "block":"Srikakulam",
    "village":"Arasavalli",
    "wl":1.8,
    "year":2014
  },
  {
    "latitude":18.27269,
    "longitude":83.90515,
    "district":"Srikakulam",
    "block":"Srikakulam",
    "village":"Patasrikakulam",
    "wl":6.5,
    "year":2014
  },
  {
    "latitude":18.60218,
    "longitude":84.23796,
    "district":"Srikakulam",
    "block":"Tekkali",
    "village":"Tekkali",
    "wl":5.9,
    "year":2014
  },
  {
    "latitude":18.71807,
    "longitude":84.3883,
    "district":"Srikakulam",
    "block":"Vajrapukotturu",
    "village":"Bendigetu",
    "wl":3.1,
    "year":2014
  },
  {
    "latitude":18.7303,
    "longitude":84.36406,
    "district":"Srikakulam",
    "block":"Vajrapukotturu",
    "village":"Veerabhadrapuram",
    "wl":3.1,
    "year":2014
  },
  {
    "latitude":13.90801,
    "longitude":79.73149,
    "district":"Tirupati",
    "block":"Balayapalle",
    "village":"Melchuru",
    "wl":2.1,
    "year":2014
  },
  {
    "latitude":13.63705,
    "longitude":79.90084,
    "district":"Tirupati",
    "block":"Buchinadidu Khandriga",
    "village":"Nilavaai",
    "wl":2.1,
    "year":2014
  },
  {
    "latitude":13.56087,
    "longitude":79.24931,
    "district":"Tirupati",
    "block":"Chandragiri",
    "village":"Mungilipattu",
    "wl":9.1,
    "year":2014
  },
  {
    "latitude":14.07216,
    "longitude":79.891,
    "district":"Tirupati",
    "block":"Chillakur",
    "village":"Budankm",
    "wl":3.8,
    "year":2014
  },
  {
    "latitude":14.14043,
    "longitude":80.0066,
    "district":"Tirupati",
    "block":"Chillakur",
    "village":"Ramareddypalem",
    "wl":0.5,
    "year":2014
  },
  {
    "latitude":14.12114,
    "longitude":79.95847,
    "district":"Tirupati",
    "block":"Chillakur",
    "village":"Tikkavaram",
    "wl":1.2,
    "year":2014
  },
  {
    "latitude":13.93052,
    "longitude":80.03844,
    "district":"Tirupati",
    "block":"Chittamur",
    "village":"Aravapalem",
    "wl":1.7,
    "year":2014
  },
  {
    "latitude":14.11018,
    "longitude":79.72702,
    "district":"Tirupati",
    "block":"Gudur",
    "village":"Gollapalle",
    "wl":6.3,
    "year":2014
  },
  {
    "latitude":14.06234,
    "longitude":79.96086,
    "district":"Tirupati",
    "block":"Kota",
    "village":"Kesavaram",
    "wl":5.8,
    "year":2014
  },
  {
    "latitude":14.03057,
    "longitude":80.03122,
    "district":"Tirupati",
    "block":"Kota",
    "village":"Vidyanagar",
    "wl":4.8,
    "year":2014
  },
  {
    "latitude":13.36953,
    "longitude":79.81433,
    "district":"Tirupati",
    "block":"Nagalapuram",
    "village":"Baita Kodiam Bedu",
    "wl":5.2,
    "year":2014
  },
  {
    "latitude":13.39547,
    "longitude":79.77703,
    "district":"Tirupati",
    "block":"Nagalapuram",
    "village":"Naagalapuram",
    "wl":3.5,
    "year":2014
  },
  {
    "latitude":13.3354,
    "longitude":79.87299,
    "district":"Tirupati",
    "block":"Nagalapuram",
    "village":"Suritipalli",
    "wl":5.0,
    "year":2014
  },
  {
    "latitude":13.47804,
    "longitude":79.04815,
    "district":"Tirupati",
    "block":"Pakala",
    "village":"Damalcheruvu",
    "wl":4.8,
    "year":2014
  },
  {
    "latitude":13.44472,
    "longitude":79.55105,
    "district":"Tirupati",
    "block":"Puttur",
    "village":"Puttur",
    "wl":0.7,
    "year":2014
  },
  {
    "latitude":13.6514,
    "longitude":79.5425,
    "district":"Tirupati",
    "block":"Renigunta",
    "village":"Guthuvaripalli",
    "wl":3.7,
    "year":2014
  },
  {
    "latitude":13.45656,
    "longitude":79.96375,
    "district":"Tirupati",
    "block":"Satyavedu",
    "village":"Ammasi Reddy Kandriga",
    "wl":2.5,
    "year":2014
  },
  {
    "latitude":13.41146,
    "longitude":79.92859,
    "district":"Tirupati",
    "block":"Satyavedu",
    "village":"Madam Bedu",
    "wl":8.1,
    "year":2014
  },
  {
    "latitude":13.4258,
    "longitude":79.95153,
    "district":"Tirupati",
    "block":"Satyavedu",
    "village":"Satyavedu",
    "wl":1.8,
    "year":2014
  },
  {
    "latitude":13.75236,
    "longitude":79.70245,
    "district":"Tirupati",
    "block":"Srikalahasti",
    "village":"Sri Kalahasti",
    "wl":3.5,
    "year":2014
  },
  {
    "latitude":13.72248,
    "longitude":80.12406,
    "district":"Tirupati",
    "block":"Sullurpeta",
    "village":"Atkanitipa",
    "wl":1.4,
    "year":2014
  },
  {
    "latitude":13.7281,
    "longitude":79.9503,
    "district":"Tirupati",
    "block":"Sullurpeta",
    "village":"Tallampadu",
    "wl":1.4,
    "year":2014
  },
  {
    "latitude":13.80003,
    "longitude":79.95281,
    "district":"Tirupati",
    "block":"Tirupati (Rural)",
    "village":"Krishnapuram",
    "wl":3.2,
    "year":2014
  },
  {
    "latitude":13.62377,
    "longitude":78.69937,
    "district":"Tirupati",
    "block":"Tirupati (Rural)",
    "village":"Thurupupalli",
    "wl":8.0,
    "year":2014
  },
  {
    "latitude":13.68484,
    "longitude":79.34463,
    "district":"Tirupati",
    "block":"Tirupati (Urban)",
    "village":"Tirumala",
    "wl":4.2,
    "year":2014
  },
  {
    "latitude":13.64248,
    "longitude":79.42151,
    "district":"Tirupati",
    "block":"Tirupati (Urban)",
    "village":"Tirupati(U)",
    "wl":20.0,
    "year":2014
  },
  {
    "latitude":13.97861,
    "longitude":80.15644,
    "district":"Tirupati",
    "block":"Vakadu",
    "village":"Durgaraja-Patnam",
    "wl":1.3,
    "year":2014
  },
  {
    "latitude":13.54444,
    "longitude":79.94166,
    "district":"Tirupati",
    "block":"Varadaiahpalem",
    "village":"Chinna Panduru",
    "wl":1.6,
    "year":2014
  },
  {
    "latitude":14.02157,
    "longitude":79.62605,
    "district":"Tirupati",
    "block":"Venkatagiri",
    "village":"Gopalpuram",
    "wl":0.8,
    "year":2014
  },
  {
    "latitude":13.94989,
    "longitude":79.58621,
    "district":"Tirupati",
    "block":"Venkatagiri",
    "village":"Venkatagiri",
    "wl":8.5,
    "year":2014
  },
  {
    "latitude":13.69716,
    "longitude":79.59404,
    "district":"Tirupati",
    "block":"Yerpedu",
    "village":"Erpedu",
    "wl":8.2,
    "year":2014
  },
  {
    "latitude":13.82023,
    "longitude":79.58479,
    "district":"Tirupati",
    "block":"Yerpedu",
    "village":"Pallem",
    "wl":5.4,
    "year":2014
  },
  {
    "latitude":17.89302,
    "longitude":83.45341,
    "district":"Visakhapatnam",
    "block":"Bheemunipatnam",
    "village":"Bhimunipatnam",
    "wl":4.7,
    "year":2014
  },
  {
    "latitude":17.88763,
    "longitude":83.45207,
    "district":"Visakhapatnam",
    "block":"Bheemunipatnam",
    "village":"Bhimunipatnam",
    "wl":2.0,
    "year":2014
  },
  {
    "latitude":17.83242,
    "longitude":83.22914,
    "district":"Visakhapatnam",
    "block":"Pendurthi",
    "village":"Bandavaripalem",
    "wl":4.1,
    "year":2014
  },
  {
    "latitude":17.84168,
    "longitude":83.21524,
    "district":"Visakhapatnam",
    "block":"Pendurthi",
    "village":"Gurrampalem",
    "wl":3.0,
    "year":2014
  },
  {
    "latitude":17.82347,
    "longitude":83.20844,
    "district":"Visakhapatnam",
    "block":"Pendurthi",
    "village":"Pendurti",
    "wl":0.6,
    "year":2014
  },
  {
    "latitude":17.50287,
    "longitude":82.79409,
    "district":"Visakhapatnam",
    "block":"Pendurthi",
    "village":"Purshotta Puram",
    "wl":2.8,
    "year":2014
  },
  {
    "latitude":17.77592,
    "longitude":83.21678,
    "district":"Visakhapatnam",
    "block":"Pendurthi",
    "village":"Vepagunta",
    "wl":2.6,
    "year":2014
  },
  {
    "latitude":17.73902,
    "longitude":83.26686,
    "district":"Visakhapatnam",
    "block":"Visakhapatnam (U)",
    "village":"Kancherapalem",
    "wl":2.8,
    "year":2014
  },
  {
    "latitude":17.73279,
    "longitude":83.34172,
    "district":"Visakhapatnam",
    "block":"Visakhapatnam (U)",
    "village":"Lawson'S Bay",
    "wl":3.0,
    "year":2014
  },
  {
    "latitude":17.71698,
    "longitude":83.32689,
    "district":"Visakhapatnam",
    "block":"Visakhapatnam (U)",
    "village":"Pithapuram",
    "wl":5.4,
    "year":2014
  },
  {
    "latitude":17.6901,
    "longitude":83.2919,
    "district":"Visakhapatnam",
    "block":"Visakhapatnam(Rural)",
    "village":"Kotaveedhi",
    "wl":2.7,
    "year":2014
  },
  {
    "latitude":17.7577,
    "longitude":83.3258,
    "district":"Visakhapatnam",
    "block":"Visakhapatnam(Rural)",
    "village":"Peddagadili",
    "wl":4.0,
    "year":2014
  },
  {
    "latitude":17.80292,
    "longitude":83.3542,
    "district":"Visakhapatnam",
    "block":"Visakhapatnam(Rural)",
    "village":"Potinamallayapalem",
    "wl":5.9,
    "year":2014
  },
  {
    "latitude":17.7801,
    "longitude":83.38513,
    "district":"Visakhapatnam",
    "block":"Visakhapatnam(Rural)",
    "village":"Rishikonda",
    "wl":0.9,
    "year":2014
  },
  {
    "latitude":17.7549,
    "longitude":83.3469,
    "district":"Visakhapatnam",
    "block":"Visakhapatnam(Rural)",
    "village":"Visalakshinagar",
    "wl":1.7,
    "year":2014
  },
  {
    "latitude":18.57116,
    "longitude":83.34872,
    "district":"Vizianagaram",
    "block":"Bobbili",
    "village":"Bobbili",
    "wl":2.1,
    "year":2014
  },
  {
    "latitude":18.2412,
    "longitude":83.3463,
    "district":"Vizianagaram",
    "block":"Bondapalle",
    "village":"Bondapalli",
    "wl":3.2,
    "year":2014
  },
  {
    "latitude":18.1636,
    "longitude":83.3779,
    "district":"Vizianagaram",
    "block":"Bondapalle",
    "village":"Gotlam",
    "wl":5.2,
    "year":2014
  },
  {
    "latitude":18.37184,
    "longitude":83.40044,
    "district":"Vizianagaram",
    "block":"Dattirajeru",
    "village":"Dattirajeru",
    "wl":2.9,
    "year":2014
  },
  {
    "latitude":18.40389,
    "longitude":83.33682,
    "district":"Vizianagaram",
    "block":"Dattirajeru",
    "village":"Maradam",
    "wl":2.5,
    "year":2014
  },
  {
    "latitude":18.0753,
    "longitude":83.4789,
    "district":"Vizianagaram",
    "block":"Denkada",
    "village":"Denkada",
    "wl":2.7,
    "year":2014
  },
  {
    "latitude":18.0753,
    "longitude":83.4789,
    "district":"Vizianagaram",
    "block":"Denkada",
    "village":"Natavalasa",
    "wl":4.2,
    "year":2014
  },
  {
    "latitude":18.4873,
    "longitude":83.3283,
    "district":"Vizianagaram",
    "block":"Gajapathinagaram",
    "village":"Gajarayanivalasa",
    "wl":3.9,
    "year":2014
  },
  {
    "latitude":18.06275,
    "longitude":83.5254,
    "district":"Vizianagaram",
    "block":"Gantyada",
    "village":"Narava",
    "wl":1.5,
    "year":2014
  },
  {
    "latitude":18.28022,
    "longitude":83.52826,
    "district":"Vizianagaram",
    "block":"Garividi",
    "village":"Garividi",
    "wl":3.4,
    "year":2014
  },
  {
    "latitude":18.34491,
    "longitude":83.58895,
    "district":"Vizianagaram",
    "block":"Garividi",
    "village":"Kapusambam",
    "wl":5.8,
    "year":2014
  },
  {
    "latitude":17.99468,
    "longitude":83.24301,
    "district":"Vizianagaram",
    "block":"Jami",
    "village":"Almanda Village",
    "wl":1.9,
    "year":2014
  },
  {
    "latitude":18.0366,
    "longitude":83.2894,
    "district":"Vizianagaram",
    "block":"Jami",
    "village":"Kotha Bheemasinghi",
    "wl":2.5,
    "year":2014
  },
  {
    "latitude":17.8967,
    "longitude":83.1856,
    "district":"Vizianagaram",
    "block":"Kothavalasa",
    "village":"Kothavalasa",
    "wl":2.2,
    "year":2014
  },
  {
    "latitude":17.9673,
    "longitude":83.17547,
    "district":"Vizianagaram",
    "block":"Lakkavarapukota",
    "village":"Lakkavarapu Kota",
    "wl":3.0,
    "year":2014
  },
  {
    "latitude":18.0254,
    "longitude":83.15206,
    "district":"Vizianagaram",
    "block":"Lakkavarapukota",
    "village":"Mallavedu",
    "wl":2.0,
    "year":2014
  },
  {
    "latitude":18.369,
    "longitude":83.4535,
    "district":"Vizianagaram",
    "block":"Merakamudidam",
    "village":"Garbham",
    "wl":4.9,
    "year":2014
  },
  {
    "latitude":18.12625,
    "longitude":83.58858,
    "district":"Vizianagaram",
    "block":"Pusapatirega",
    "village":"Kanimetta",
    "wl":2.8,
    "year":2014
  },
  {
    "latitude":18.44599,
    "longitude":83.65337,
    "district":"Vizianagaram",
    "block":"Rajam",
    "village":"Rajam",
    "wl":2.4,
    "year":2014
  },
  {
    "latitude":18.155,
    "longitude":83.1318,
    "district":"Vizianagaram",
    "block":"Srungavarapukota",
    "village":"Gowripuram",
    "wl":1.2,
    "year":2014
  },
  {
    "latitude":18.11594,
    "longitude":83.1378,
    "district":"Vizianagaram",
    "block":"Srungavarapukota",
    "village":"S.Kota",
    "wl":1.5,
    "year":2014
  },
  {
    "latitude":18.1695,
    "longitude":83.1926,
    "district":"Vizianagaram",
    "block":"Srungavarapukota",
    "village":"Tatipudi",
    "wl":4.9,
    "year":2014
  },
  {
    "latitude":18.46213,
    "longitude":83.49821,
    "district":"Vizianagaram",
    "block":"Therlam",
    "village":"Agraharam",
    "wl":4.9,
    "year":2014
  },
  {
    "latitude":18.10388,
    "longitude":83.39395,
    "district":"Vizianagaram",
    "block":"Vizianagaram",
    "village":"Vizianagaram",
    "wl":3.2,
    "year":2014
  },
  {
    "latitude":16.586,
    "longitude":81.3882,
    "district":"West Godavari",
    "block":"Akividu",
    "village":"Akiveedu",
    "wl":3.2,
    "year":2014
  },
  {
    "latitude":16.583,
    "longitude":81.3889,
    "district":"West Godavari",
    "block":"Akividu",
    "village":"Akiveedu",
    "wl":0.9,
    "year":2014
  },
  {
    "latitude":16.686,
    "longitude":81.6052,
    "district":"West Godavari",
    "block":"Attili",
    "village":"Attili",
    "wl":0.9,
    "year":2014
  },
  {
    "latitude":16.5582,
    "longitude":81.5017,
    "district":"West Godavari",
    "block":"Bhimavaram",
    "village":"Narsimhapuram",
    "wl":1.3,
    "year":2014
  },
  {
    "latitude":16.3677,
    "longitude":81.6038,
    "district":"West Godavari",
    "block":"Mogalthur",
    "village":"Kummarapurugu",
    "wl":1.3,
    "year":2014
  },
  {
    "latitude":16.378,
    "longitude":81.5837,
    "district":"West Godavari",
    "block":"Mogalthur",
    "village":"Perupalem",
    "wl":1.5,
    "year":2014
  },
  {
    "latitude":16.4323,
    "longitude":81.6933,
    "district":"West Godavari",
    "block":"Narsapur",
    "village":"Narsapuram",
    "wl":1.1,
    "year":2014
  },
  {
    "latitude":16.5095,
    "longitude":81.7194,
    "district":"West Godavari",
    "block":"Palacole",
    "village":"Palakolu",
    "wl":1.5,
    "year":2014
  },
  {
    "latitude":16.5505,
    "longitude":81.5713,
    "district":"West Godavari",
    "block":"Palakoderu",
    "village":"Vissakoduru",
    "wl":1.4,
    "year":2014
  },
  {
    "latitude":16.7858,
    "longitude":81.5265,
    "district":"West Godavari",
    "block":"Pentapadu",
    "village":"Pentapadu",
    "wl":1.5,
    "year":2014
  },
  {
    "latitude":16.6162,
    "longitude":81.6409,
    "district":"West Godavari",
    "block":"Penumantra",
    "village":"Polamuru",
    "wl":1.6,
    "year":2014
  },
  {
    "latitude":16.8211,
    "longitude":81.5186,
    "district":"West Godavari",
    "block":"Tadepalligudem",
    "village":"Tadepalligudem",
    "wl":3.8,
    "year":2014
  },
  {
    "latitude":16.586,
    "longitude":81.4166,
    "district":"West Godavari",
    "block":"Undi",
    "village":"Cherukuwada",
    "wl":2.0,
    "year":2014
  },
  {
    "latitude":16.6322,
    "longitude":81.4673,
    "district":"West Godavari",
    "block":"Undi",
    "village":"Kolamuru",
    "wl":1.1,
    "year":2014
  },
  {
    "latitude":16.5862,
    "longitude":81.4613,
    "district":"West Godavari",
    "block":"Undi",
    "village":"Undi",
    "wl":1.3,
    "year":2014
  },
  {
    "latitude":16.5417,
    "longitude":81.606,
    "district":"West Godavari",
    "block":"Veeravasaram",
    "village":"Veeravasaram",
    "wl":1.8,
    "year":2014
  },
  {
    "latitude":14.83201,
    "longitude":78.95212,
    "district":"Y.S.R.",
    "block":"Brahmamgarimatham",
    "village":"Chowdariwaripalli",
    "wl":2.7,
    "year":2014
  },
  {
    "latitude":14.89482,
    "longitude":78.92397,
    "district":"Y.S.R.",
    "block":"Brahmamgarimatham",
    "village":"Chowkpalli",
    "wl":4.6,
    "year":2014
  },
  {
    "latitude":14.8889,
    "longitude":78.88074,
    "district":"Y.S.R.",
    "block":"Brahmamgarimatham",
    "village":"Mallepalle",
    "wl":5.9,
    "year":2014
  },
  {
    "latitude":14.82087,
    "longitude":78.87815,
    "district":"Y.S.R.",
    "block":"Brahmamgarimatham",
    "village":"Vbmatham",
    "wl":3.6,
    "year":2014
  },
  {
    "latitude":14.71928,
    "longitude":78.67705,
    "district":"Y.S.R.",
    "block":"Chapadu",
    "village":"Alludupally",
    "wl":2.4,
    "year":2014
  },
  {
    "latitude":14.72529,
    "longitude":78.7075,
    "district":"Y.S.R.",
    "block":"Chapadu",
    "village":"Vishwanathpuram",
    "wl":1.7,
    "year":2014
  },
  {
    "latitude":14.91114,
    "longitude":78.62117,
    "district":"Y.S.R.",
    "block":"Duvvur",
    "village":"Kanagudur",
    "wl":0.6,
    "year":2014
  },
  {
    "latitude":14.85227,
    "longitude":78.38792,
    "district":"Y.S.R.",
    "block":"Jammalamadugu",
    "village":"Jammalamadugu",
    "wl":9.2,
    "year":2014
  },
  {
    "latitude":14.58752,
    "longitude":78.63683,
    "district":"Y.S.R.",
    "block":"Kamalapuram",
    "village":"Chadipiralla",
    "wl":1.4,
    "year":2014
  },
  {
    "latitude":14.64722,
    "longitude":78.7751,
    "district":"Y.S.R.",
    "block":"Khajipet",
    "village":"Pathur",
    "wl":1.7,
    "year":2014
  },
  {
    "latitude":14.73152,
    "longitude":78.14634,
    "district":"Y.S.R.",
    "block":"Kondapuram",
    "village":"Donkapalli Satram",
    "wl":8.4,
    "year":2014
  },
  {
    "latitude":14.49714,
    "longitude":78.11578,
    "district":"Y.S.R.",
    "block":"Lingala",
    "village":"Diguva Lingala",
    "wl":16.5,
    "year":2014
  },
  {
    "latitude":14.94489,
    "longitude":78.3118,
    "district":"Y.S.R.",
    "block":"Mylavaram",
    "village":"Talamanchi Patnam",
    "wl":1.4,
    "year":2014
  },
  {
    "latitude":14.83447,
    "longitude":78.66407,
    "district":"Y.S.R.",
    "block":"Rajupalem",
    "village":"Pullareddy Pet",
    "wl":6.3,
    "year":2014
  },
  {
    "latitude":14.33435,
    "longitude":78.53285,
    "district":"Y.S.R.",
    "block":"Vempalle",
    "village":"Idupulapaya",
    "wl":5.7,
    "year":2014
  },
  {
    "latitude":17.4633,
    "longitude":82.0271,
    "district":"Alluri Sitharama Raju",
    "block":"Addateegala",
    "village":"Addateegala",
    "wl":5.5,
    "year":2015
  },
  {
    "latitude":17.5032,
    "longitude":82.0124,
    "district":"Alluri Sitharama Raju",
    "block":"Addateegala",
    "village":"Mallavaram Mammilu",
    "wl":5.2,
    "year":2015
  },