STATE_UT,DISTRICT,BLOCK,VILLAGE,LATITUDE,LONGITUDE,Date,WL(mbgl),lat,lon,Temperature,Humidity,Rainfall
Andhra Pradesh,Alluri Sitharama Raju,Addateegala,Addateegala,17.4633,82.0271,2023-01-01,8.3,,,,,
Andhra Pradesh,Alluri Sitharama Raju,Addateegala,Mallavaram Mammilu,17.5032,82.0124,2023-01-01,4.4,,,,,
Andhra Pradesh,Alluri Sitharama Raju,Addateegala,Veerbhadrapuram,17.4379,82.074,2023-01-01,1.7,,,,,
Andhra Pradesh,Alluri Sitharama Raju,Ananthagiri,Anantagiri,18.2388,83.0011,2023-01-01,4.4,,,,,
Andhra Pradesh,Alluri Sitharama Raju,Ananthagiri,Bangarammapeta,18.216,83.1019,2023-01-01,4.2,,,,,
Andhra Pradesh,Alluri Sitharama Raju,Ananthagiri,Kottur,18.2074,83.0743,2023-01-01,4.1,,,,,
Andhra Pradesh,Alluri Sitharama Raju,Araku Valley,Araku,18.3207,82.8814,2023-01-01,9.0,,,,,
Andhra Pradesh,Alluri Sitharama Raju,Araku Valley,Sunkarametta,18.2785,82.96694,2023-01-01,8.9,,,,,
Andhra Pradesh,Alluri Sitharama Raju,Chintapalle,Lambasingi,17.8071,82.4959,2023-01-01,1.9,,,,,
Andhra Pradesh,Alluri Sitharama Raju,Chintapalle,Lotugadda,17.8554,82.4361,2023-01-01,0.6,,,,,
Andhra Pradesh,Alluri Sitharama Raju,Chintoor,Chintoor,17.756,81.387,2023-01-01,5.7,,,,,
Andhra Pradesh,Alluri Sitharama Raju,Chintoor,Chirevalli,17.59458,81.0856,2023-01-01,3.0,,,,,
Andhra Pradesh,Alluri Sitharama Raju,Chintoor,Edugarallapalli,17.74267,81.17827,2023-01-01,4.2,,,,,
Andhra Pradesh,Alluri Sitharama Raju,Chintoor,Mothugudem,17.82787,81.63193,2023-01-01,1.7,,,,,
Andhra Pradesh,Alluri Sitharama Raju,Chintoor,Sarivela,17.78168,81.28287,2023-01-01,2.8,,,,,
Andhra Pradesh,Alluri Sitharama Raju,Devipatnam,Chinna Ramanayapet,17.3235,81.6974,2023-01-01,1.9,,,,,
Andhra Pradesh,Alluri Sitharama Raju,Dumbriguda,Dimriguda,18.2885,82.7921,2023-01-01,10.1,,,,,
Andhra Pradesh,Alluri Sitharama Raju,Gangavaram,Jaderu,17.4805,81.9523,2023-01-01,1.9,,,,,
Andhra Pradesh,Alluri Sitharama Raju,Gudem Kotha Veedhi,Gudem,17.863,82.1957,2023-01-01,2.7,,,,,
Andhra Pradesh,Alluri Sitharama Raju,Hukumpeta,Kontela,18.1386,82.6878,2023-01-01,4.3,,,,,
Andhra Pradesh,Alluri Sitharama Raju,Hukumpeta,Rangasheela,18.2106,82.7788,2023-01-01,1.0,,,,,
Andhra Pradesh,Alluri Sitharama Raju,Koyyuru,Koyyuru,17.6599,82.2194,2023-01-01,1.7,,,,,
Andhra Pradesh,Alluri Sitharama Raju,Maredumilli,Maredumilli,17.5961,81.71549,2023-01-01,4.4,,,,,
Andhra Pradesh,Alluri Sitharama Raju,Nellipaka,Lakshmipuram,17.71967,81.04836,2023-01-01,5.4,,,,,
Andhra Pradesh,Alluri Sitharama Raju,Nellipaka,Lakshmipuram,17.71967,81.04836,2023-01-01,5.2,,,,,
Andhra Pradesh,Alluri Sitharama Raju,Paderu,Garikabanda,17.9453,82.7566,2023-01-01,1.3,,,,,
Andhra Pradesh,Alluri Sitharama Raju,Paderu,Minimuluru,18.0369,82.6999,2023-01-01,8.7,,,,,
Andhra Pradesh,Alluri Sitharama Raju,Paderu,Paderu,18.0795,82.6735,2023-01-01,7.4,,,,,
Andhra Pradesh,Alluri Sitharama Raju,Paderu,Paderu,18.0894,82.6675,2023-01-01,12.3,,,,,
Andhra Pradesh,Alluri Sitharama Raju,Paderu,Vontlamamidi,17.9746,82.7334,2023-01-01,1.9,,,,,
Andhra Pradesh,Alluri Sitharama Raju,Peda Bayalu,Gamparai,18.1825,82.6374,2023-01-01,2.9,,,,,
Andhra Pradesh,Alluri Sitharama Raju,Rajavommangi,Badadanapalli,17.5841,82.2685,2023-01-01,2.8,,,,,
Andhra Pradesh,Alluri Sitharama Raju,Rajavommangi,Jaddangi,17.4855,82.1582,2023-01-01,4.5,,,,,
Andhra Pradesh,Alluri Sitharama Raju,Rajavommangi,Lagarai,17.5735,82.1922,2023-01-01,2.9,,,,,
Andhra Pradesh,Alluri Sitharama Raju,Rajavommangi,Rajavommangi,17.5408,82.2229,2023-01-01,2.0,,,,,
Andhra Pradesh,Alluri Sitharama Raju,Rampachodavaram,Chelakaveedhi,17.4613,81.671,2023-01-01,4.1,,,,,
Andhra Pradesh,Alluri Sitharama Raju,Rampachodavaram,Folkspeta,17.3139,81.8398,2023-01-01,2.9,,,,,
Andhra Pradesh,Alluri Sitharama Raju,Rampachodavaram,Rampachodavaram,17.4402,81.7805,2023-01-01,8.1,,,,,
Andhra Pradesh,Alluri Sitharama Raju,Rampachodavaram,Sitapalli,17.3762,81.7915,2023-01-01,2.6,,,,,
Andhra Pradesh,Alluri Sitharama Raju,Y. Ramavaram,Chaviti Tibalu,17.6183,81.9854,2023-01-01,1.1,,,,,
Andhra Pradesh,Alluri Sitharama Raju,Y. Ramavaram,P. Yerragonda,17.6583,81.9492,2023-01-01,4.3,,,,,
Andhra Pradesh,Anakapalli,Achutapuram,Haripalem,17.60917,82.97784,2023-01-01,6.6,,,,,
Andhra Pradesh,Anakapalli,Anakapalle,Anakapalli,17.68095,82.9817,2023-01-01,1.8,,,,,
Andhra Pradesh,Anakapalli,Butchayyapeta,Bangarumitta,17.83871,82.86782,2023-01-01,2.8,,,,,
Andhra Pradesh,Anakapalli,Butchayyapeta,L.Singavaram,17.81936,82.83775,2023-01-01,2.3,,,,,
Andhra Pradesh,Anakapalli,Golugonda,Mallampet,17.67405,82.44868,2023-01-01,1.0,,,,,
Andhra Pradesh,Anakapalli,Golugonda,Naganna Dorapalem,17.67734,82.4944,2023-01-01,1.9,,,,,
Andhra Pradesh,Anakapalli,Golugonda,Pata K.D.Peta,17.6723,82.3619,2023-01-01,1.3,,,,,
Andhra Pradesh,Anakapalli,Kasimkota,Tallapalem,17.63373,82.89215,2023-01-01,0.9,,,,,
Andhra Pradesh,Anakapalli,Kotauratla,Kotauratla,17.56487,82.68665,2023-01-01,2.9,,,,,
Andhra Pradesh,Anakapalli,Kotauratla,Yendapalli,17.61124,82.64991,2023-01-01,1.5,,,,,
Andhra Pradesh,Anakapalli,Narsipatnam,Narsipatnam,17.67606,82.59564,2023-01-01,2.5,,,,,
Andhra Pradesh,Anakapalli,Rambilli,Pudimadaka,17.4928,83.00236,2023-01-01,2.1,,,,,
Andhra Pradesh,Anakapalli,Ravikamatham,Kothakota,17.7562,82.7051,2023-01-01,0.2,,,,,
Andhra Pradesh,Anakapalli,Ravikamatham,Medivoda,17.78451,82.77913,2023-01-01,2.5,,,,,
Andhra Pradesh,Anakapalli,Rolugunta,Rolugunta,17.7129,82.6668,2023-01-01,2.1,,,,,
Andhra Pradesh,Anakapalli,S.Rayavaram,Addaroddu,17.43203,82.74759,2023-01-01,1.1,,,,,
Andhra Pradesh,Anakapalli,S.Rayavaram,Gurrajupeta,17.40054,82.76798,2023-01-01,2.2,,,,,
Andhra Pradesh,Anakapalli,S.Rayavaram,Rayavaram,17.45476,82.80249,2023-01-01,1.6,,,,,
Andhra Pradesh,Anakapalli,S.Rayavaram,Revupolavaram,17.39716,82.81776,2023-01-01,1.8,,,,,
Andhra Pradesh,Anakapalli,Yelamanchili,Yelamanchili,17.54635,82.85566,2023-01-01,5.4,,,,,
Andhra Pradesh,Ananthapuramu,Anantapur,Kamarupalli,14.6617,77.49913,2023-01-01,7.8,,,,,
Andhra Pradesh,Ananthapuramu,Atmakur,Waddipalli,14.67769,77.4562,2023-01-01,1.0,,,,,
Andhra Pradesh,Ananthapuramu,Beluguppa,Ramasagram,14.7232,77.256,2023-01-01,6.9,,,,,
Andhra Pradesh,Ananthapuramu,Beluguppa,Ramasagram,14.7232,77.256,2023-01-01,5.7,,,,,
Andhra Pradesh,Ananthapuramu,Bukkarayasamudram,Korrapadu,14.75411,77.71196,2023-01-01,1.1,,,,,
Andhra Pradesh,Ananthapuramu,Bukkarayasamudram,Regadikotturu,14.76639,77.62333,2023-01-01,1.7,,,,,
Andhra Pradesh,Ananthapuramu,Gooty,Brahmanapalli,15.0678,77.5424,2023-01-01,1.5,,,,,
Andhra Pradesh,Ananthapuramu,Gooty,Gooty,15.1132,77.6155,2023-01-01,3.2,,,,,
Andhra Pradesh,Ananthapuramu,Gooty,Gooty,15.1179,77.64,2023-01-01,4.5,,,,,
Andhra Pradesh,Ananthapuramu,Gummagatta,Gummagatta,14.56944,76.86694,2023-01-01,1.5,,,,,
Andhra Pradesh,Ananthapuramu,Guntakal,Guntakal,15.15571,77.3837,2023-01-01,2.1,,,,,
Andhra Pradesh,Ananthapuramu,Guntakal,Kogannapalle,15.18234,77.5435,2023-01-01,1.4,,,,,
Andhra Pradesh,Ananthapuramu,Kalyandrug,Kalyandurg,14.5483,77.1071,2023-01-01,2.1,,,,,
Andhra Pradesh,Ananthapuramu,Kudair,Kodadarakunta,14.7342,77.3961,2023-01-01,0.4,,,,,
Andhra Pradesh,Ananthapuramu,Kundurpi,Bodapalli,14.399,77.077,2023-01-01,9.3,,,,,
Andhra Pradesh,Ananthapuramu,Narpala,Nayanapalle,14.802,77.8137,2023-01-01,5.4,,,,,
Andhra Pradesh,Ananthapuramu,Pamidi,Sorakayalapeta,14.9441,77.5251,2023-01-01,1.7,,,,,
Andhra Pradesh,Ananthapuramu,Pamidi,Sorakayalapeta,14.9441,77.5251,2023-01-01,1.9,,,,,
Andhra Pradesh,Ananthapuramu,Rayadurg,Rayadurg,14.7054,76.8484,2023-01-01,3.1,,,,,
Andhra Pradesh,Ananthapuramu,Settur,Chinnampalli,14.47016,77.06235,2023-01-01,1.1,,,,,
Andhra Pradesh,Ananthapuramu,Singanamala,Sivapuram,14.7788,77.7269,2023-01-01,6.4,,,,,
Andhra Pradesh,Ananthapuramu,Singanamala,Sivapuram,14.7788,77.7269,2023-01-01,6.1,,,,,
Andhra Pradesh,Ananthapuramu,Uravakonda,Amidala,14.851,77.2501,2023-01-01,1.7,,,,,
Andhra Pradesh,Ananthapuramu,Vajrakarur,Vajrakarur,15.03043,77.38311,2023-01-01,3.5,,,,,
Andhra Pradesh,Ananthapuramu,Vajrakarur,Vajrakarur,15.0223,77.3825,2023-01-01,10.7,,,,,
Andhra Pradesh,Ananthapuramu,Yadiki,Peddapeta,15.0546,77.8372,2023-01-01,13.3,,,,,
Andhra Pradesh,Annamayya,B.Kothakota,Kandlamadugu,13.66631,78.41837,2023-01-01,0.9,,,,,
Andhra Pradesh,Annamayya,Chinnamandem,Chinnamandyam,13.94948,78.68845,2023-01-01,2.2,,,,,
Andhra Pradesh,Annamayya,Chinnamandem,Keshapuram,13.89779,78.65647,2023-01-01,1.2,,,,,
Andhra Pradesh,Annamayya,Galiveedu,Bowreddygaripallli,14.14071,78.59031,2023-01-01,6.7,,,,,
Andhra Pradesh,Annamayya,Galiveedu,Galiveedu,14.02485,78.50271,2023-01-01,0.8,,,,,
Andhra Pradesh,Annamayya,Kalakada,Kalakoda,13.82753,78.78775,2023-01-01,4.3,,,,,
Andhra Pradesh,Annamayya,Kalakada,Papireddygaripalli,13.78668,78.7309,2023-01-01,6.2,,,,,
Andhra Pradesh,Annamayya,Kalikiri,Medikurthi,13.70517,78.77318,2023-01-01,4.3,,,,,
Andhra Pradesh,Annamayya,Kodur,Kodur,13.95871,79.35315,2023-01-01,5.2,,,,,
Andhra Pradesh,Annamayya,Lakkireddipalle,Lakkireddipalli,14.1849,78.70151,2023-01-01,5.8,,,,,
Andhra Pradesh,Annamayya,Madanapalle,Arogyavaram,13.59343,78.52698,2023-01-01,6.0,,,,,
Andhra Pradesh,Annamayya,Madanapalle,Basani Khonda,13.55127,78.52983,2023-01-01,1.4,,,,,
Andhra Pradesh,Annamayya,Nimmanapalle,Chintaparti,13.64421,78.70485,2023-01-01,0.5,,,,,
Andhra Pradesh,Annamayya,Nimmanapalle,Nimmanapalle,13.57053,78.66868,2023-01-01,0.8,,,,,
Andhra Pradesh,Annamayya,Obulavaripalle,Mangampet,14.04102,79.30847,2023-01-01,3.1,,,,,
Andhra Pradesh,Annamayya,Peddathippasamudram Kandukuru,,13.76096,78.16043,2023-01-01,10.5,,,,,
Andhra Pradesh,Annamayya,Peddathippasamudram Pulikallu,,13.7738,78.22435,2023-01-01,0.5,,,,,
Andhra Pradesh,Annamayya,Penagalur,Penagaluru,14.29502,79.26093,2023-01-01,7.1,,,,,
Andhra Pradesh,Annamayya,Penagalur,Vadipalli,14.24839,79.23571,2023-01-01,12.3,,,,,
Andhra Pradesh,Annamayya,Pullampeta,Pothanavaripally,14.14806,79.19836,2023-01-01,4.9,,,,,
Andhra Pradesh,Annamayya,Rajampet,Gundlur,14.25083,79.11389,2023-01-01,2.7,,,,,
Andhra Pradesh,Annamayya,Ramapuram,Guvvalacheruvu,14.29693,78.7523,2023-01-01,2.9,,,,,
Andhra Pradesh,Annamayya,Ramapuram,Ramapuram,14.19364,78.76031,2023-01-01,4.9,,,,,
Andhra Pradesh,Annamayya,Ramapuram,Ramapuram,14.19366,78.76036,2023-01-01,4.9,,,,,
Andhra Pradesh,Annamayya,Ramasamudram,Ramasamudram,13.36429,78.4271,2023-01-01,0.0,,,,,
Andhra Pradesh,Annamayya,T.Sundupalle,Appayagaripalli,14.08361,78.92167,2023-01-01,0.9,,,,,
Andhra Pradesh,Annamayya,T.Sundupalle,Konnidigaripalli,13.98899,78.95367,2023-01-01,6.8,,,,,
Andhra Pradesh,Annamayya,T.Sundupalle,Pincha,13.91567,78.99868,2023-01-01,5.6,,,,,
Andhra Pradesh,Annamayya,T.Sundupalle,Pujarivandlapally,14.04622,78.91012,2023-01-01,8.3,,,,,
Andhra Pradesh,Annamayya,T.Sundupalle,T.Sundupalli,13.97944,78.90944,2023-01-01,1.9,,,,,
Andhra Pradesh,Annamayya,Veeraballi,Sanipai,14.10753,78.94972,2023-01-01,2.4,,,,,
Andhra Pradesh,Bapatla,Amruthalur,Govada,16.06978,80.66747,2023-01-01,2.5,,,,,
Andhra Pradesh,Bapatla,Amruthalur,Kuchipudi,16.18465,80.65948,2023-01-01,1.0,,,,,
Andhra Pradesh,Bapatla,Ballikurava,Vaidana Kopperapadu,15.96058,79.96261,2023-01-01,2.2,,,,,
Andhra Pradesh,Bapatla,Bapatla,Bapatla,15.91587,80.48235,2023-01-01,2.8,,,,,
Andhra Pradesh,Bapatla,Bapatla,Cheruvu Jammulapalem,15.9354,80.44507,2023-01-01,3.0,,,,,
Andhra Pradesh,Bapatla,Bhattiprolu,Bhattiprolu,16.09661,80.77324,2023-01-01,3.0,,,,,
Andhra Pradesh,Bapatla,Cherukupalle,Punnapalle,16.06112,80.70123,2023-01-01,2.6,,,,,
Andhra Pradesh,Bapatla,Chinaganjam,Kadavakuduru,15.72645,80.25433,2023-01-01,3.7,,,,,
Andhra Pradesh,Bapatla,Chirala,Chirala,15.82977,80.35452,2023-01-01,3.3,,,,,
Andhra Pradesh,Bapatla,Chirala,Vadarevu,15.79749,80.41105,2023-01-01,2.3,,,,,
Andhra Pradesh,Bapatla,Inkollu,Duddukuru,15.74255,80.17304,2023-01-01,2.8,,,,,
Andhra Pradesh,Bapatla,Inkollu,Inkolu,15.8263,80.19111,2023-01-01,1.7,,,,,
Andhra Pradesh,Bapatla,Janakavaram Ponguluru Muppavaram,,15.84313,80.0518,2023-01-01,0.3,,,,,
Andhra Pradesh,Bapatla,Karamchedu,Daggu Padu,15.87829,80.20987,2023-01-01,1.0,,,,,
Andhra Pradesh,Bapatla,Karamchedu,Karamchedu,15.8716,80.33343,2023-01-01,1.5,,,,,
Andhra Pradesh,Bapatla,Kollur,Kolluru,16.16666,80.8049,2023-01-01,1.7,,,,,
Andhra Pradesh,Bapatla,Korisapadu,Medarmetla,15.72831,80.0156,2023-01-01,5.0,,,,,
Andhra Pradesh,Bapatla,Nagaram,Mannevaripalem,15.9719,80.61419,2023-01-01,0.9,,,,,
Andhra Pradesh,Bapatla,Nizampatnam,Nijampatnam,15.90237,80.66388,2023-01-01,1.2,,,,,
Andhra Pradesh,Bapatla,Nizampatnam,Pallapatla,15.98293,80.75313,2023-01-01,1.8,,,,,
Andhra Pradesh,Bapatla,Parchur,Nutalapadu,15.93479,80.23398,2023-01-01,1.2,,,,,
Andhra Pradesh,Bapatla,Repalle,Repalle,16.0288,80.8397,2023-01-01,1.5,,,,,
Andhra Pradesh,Bapatla,Vemuru,Chavali,16.1389,80.72749,2023-01-01,3.7,,,,,
Andhra Pradesh,Bapatla,Vetapalem,Veta Palem,15.77425,80.30475,2023-01-01,4.4,,,,,
Andhra Pradesh,Chittoor,Bangarupalem,Bangarupalem,13.18673,78.90465,2023-01-01,5.3,13.2172,79.1003,22.19,82.58,0.0
Andhra Pradesh,Chittoor,Bangarupalem,Shankrantipalli,13.19563,79.00402,2023-01-01,5.1,13.2172,79.1003,22.19,82.58,0.0
Andhra Pradesh,Chittoor,Chittoor,Chittoor,13.2075,79.09812,2023-01-01,1.7,13.2172,79.1003,22.19,82.58,0.0
Andhra Pradesh,Chittoor,Gangadhara Nellore,Bangareddypalli,13.22028,79.21784,2023-01-01,2.5,13.2172,79.1003,22.19,82.58,0.0
Andhra Pradesh,Chittoor,Gangadhara Nellore,Valasanallapalle,13.26623,79.27055,2023-01-01,1.4,13.2172,79.1003,22.19,82.58,0.0
Andhra Pradesh,Chittoor,Gudipala,Nangamangalam,13.04117,79.18317,2023-01-01,0.6,13.2172,79.1003,22.19,82.58,0.0
Andhra Pradesh,Chittoor,Karvetinagar,Karvetnagar,13.42624,79.45314,2023-01-01,3.8,13.2172,79.1003,22.19,82.58,0.0
Andhra Pradesh,Chittoor,Kuppam,Adavimolakapalle,12.65479,78.36082,2023-01-01,5.6,13.2172,79.1003,22.19,82.58,0.0
Andhra Pradesh,Chittoor,Nagari,Mudipalli,13.28858,79.54967,2023-01-01,2.5,13.2172,79.1003,22.19,82.58,0.0
Andhra Pradesh,Chittoor,Nindra,Koppedu,13.40949,79.7054,2023-01-01,1.5,13.2172,79.1003,22.19,82.58,0.0
Andhra Pradesh,Chittoor,Palamaner,Dugina Varipalli,13.14776,78.66117,2023-01-01,1.7,13.2172,79.1003,22.19,82.58,0.0
Andhra Pradesh,Chittoor,Palamaner,M.Kotur,13.10369,78.75291,2023-01-01,2.3,13.2172,79.1003,22.19,82.58,0.0
Andhra Pradesh,Chittoor,Palamaner,M.Kotur,13.10366,78.75289,2023-01-01,1.7,13.2172,79.1003,22.19,82.58,0.0
Andhra Pradesh,Chittoor,Palamaner,Palamaneru,13.19831,78.74307,2023-01-01,0.3,13.2172,79.1003,22.19,82.58,0.0
Andhra Pradesh,Chittoor,Peddapanjani,Peddapanjani,13.292,78.6829,2023-01-01,7.8,13.2172,79.1003,22.19,82.58,0.0
Andhra Pradesh,Chittoor,Pulicherla H/O ReddivariMpaellreiguntala Gari Palli,,13.56865,79.01537,2023-01-01,3.2,13.2172,79.1003,22.19,82.58,0.0
Andhra Pradesh,Chittoor,Puthalapattu,Bandarlapalli,13.33132,79.09955,2023-01-01,2.5,13.2172,79.1003,22.19,82.58,0.0
Andhra Pradesh,Chittoor,Puthalapattu,Chittipirala,13.41714,79.12091,2023-01-01,2.6,13.2172,79.1003,22.19,82.58,0.0
Andhra Pradesh,Chittoor,Puthalapattu,Kothapalli,13.42819,79.04733,2023-01-01,4.4,13.2172,79.1003,22.19,82.58,0.0
Andhra Pradesh,Chittoor,Ramakuppam,Guruvimoklapalle,12.91196,78.53574,2023-01-01,0.3,13.2172,79.1003,22.19,82.58,0.0
Andhra Pradesh,Chittoor,Sodam,Battuvaripalli,13.54709,78.91663,2023-01-01,1.3,13.2172,79.1003,22.19,82.58,0.0
Andhra Pradesh,Chittoor,Somala,Somala,13.47668,78.81051,2023-01-01,12.4,13.2172,79.1003,22.19,82.58,0.0
Andhra Pradesh,Chittoor,Srirangarajapuram,Arumakapally,13.30327,79.28713,2023-01-01,7.2,13.2172,79.1003,22.19,82.58,0.0
Andhra Pradesh,Chittoor,Srirangarajapuram,Tayyuru,13.30289,79.31127,2023-01-01,5.3,13.2172,79.1003,22.19,82.58,0.0
Andhra Pradesh,Chittoor,Thavanampalle,Kanipakkampatnam,13.26227,79.0604,2023-01-01,1.2,13.2172,79.1003,22.19,82.58,0.0
Andhra Pradesh,Chittoor,Thavanampalle,Nallisettipalli,13.22188,79.03362,2023-01-01,7.5,13.2172,79.1003,22.19,82.58,0.0
Andhra Pradesh,Chittoor,Vedurukuppam,Kondakindapalli,13.38309,79.27886,2023-01-01,3.1,13.2172,79.1003,22.19,82.58,0.0
Andhra Pradesh,Chittoor,Venkatagirikota,Venkatagirikota,13.00081,78.47934,2023-01-01,4.7,13.2172,79.1003,22.19,82.58,0.0
Andhra Pradesh,Chittoor,Yadamari,Muddu Ramapuram,13.10771,78.99415,2023-01-01,3.6,13.2172,79.1003,22.19,82.58,0.0
Andhra Pradesh,Chittoor,Yadamari,Yadamari,13.1605,79.03833,2023-01-01,3.6,13.2172,79.1003,22.19,82.58,0.0
Andhra Pradesh,Dr. B.R. Ambedkar KonaseemAianavilli,,Ainavalli,16.6613,82.0125,2023-01-01,1.7,,,,,
Andhra Pradesh,Dr. B.R. Ambedkar KonaseemAianavilli,,Jonnada,16.7929,81.8659,2023-01-01,0.3,,,,,
Andhra Pradesh,Dr. B.R. Ambedkar KonaseemAianavilli,,Mukteshwaram,16.6602,82.0246,2023-01-01,6.6,,,,,
Andhra Pradesh,Dr. B.R. Ambedkar KonaseemAianavilli,,Vilasa,16.6187,82.0195,2023-01-01,0.9,,,,,
Andhra Pradesh,Dr. B.R. Ambedkar KonaseemAma alapuram,,Amalapuram,16.5734,82.0051,2023-01-01,1.7,,,,,
Andhra Pradesh,Dr. B.R. Ambedkar KonaseemAma alapuram,,Amalapuram,16.562,81.9956,2023-01-01,1.2,,,,,
Andhra Pradesh,Dr. B.R. Ambedkar KonaseemAma alapuram,,Bandurlanka,16.5882,81.9738,2023-01-01,3.8,,,,,
Andhra Pradesh,Dr. B.R. Ambedkar KonaseemAma bajipeta,,Ambajipeta,16.5933,81.9523,2023-01-01,3.4,,,,,
Andhra Pradesh,Dr. B.R. Ambedkar KonaseemAma bajipeta,,Chinalanka,16.6544,81.9381,2023-01-01,2.2,,,,,
Andhra Pradesh,Dr. B.R. Ambedkar KonaseemAtareyapuram,,Rally,16.7796,81.8027,2023-01-01,5.2,,,,,
Andhra Pradesh,Dr. B.R. Ambedkar KonaseemI. aPolavaram,,Komaragiri,16.6963,82.1802,2023-01-01,1.4,,,,,
Andhra Pradesh,Dr. B.R. Ambedkar KonaseemI. aPolavaram,,Muramalla,16.6728,82.165,2023-01-01,2.1,,,,,
Andhra Pradesh,Dr. B.R. Ambedkar KonaseemI. aPolavaram,,Yanam,16.7294,82.2141,2023-01-01,2.3,,,,,
Andhra Pradesh,Dr. B.R. Ambedkar KonaseemKoathapeta,,Kothapeta,16.7159,81.8964,2023-01-01,4.4,,,,,
Andhra Pradesh,Dr. B.R. Ambedkar KonaseemMaalikipuram,,Malikipuram,16.4135,81.8047,2023-01-01,1.7,,,,,
Andhra Pradesh,Dr. B.R. Ambedkar KonaseemMaalikipuram,,Pattipuram,16.4046,81.80582,2023-01-01,1.3,,,,,
Andhra Pradesh,Dr. B.R. Ambedkar KonaseemMaamidikuduru,,Appanapalle,16.5307,81.9234,2023-01-01,3.4,,,,,
Andhra Pradesh,Dr. B.R. Ambedkar KonaseemMaandapeta,,Dwarapudi,16.927,81.9167,2023-01-01,1.5,,,,,
Andhra Pradesh,Dr. B.R. Ambedkar KonaseemMaummidivaram,,Mobalacherevu,16.6165,82.0731,2023-01-01,1.5,,,,,
Andhra Pradesh,Dr. B.R. Ambedkar KonaseemMaummidivaram,,Thanelankamulli,16.6562,82.1221,2023-01-01,1.6,,,,,
Andhra Pradesh,Dr. B.R. Ambedkar KonaseemPaamarru,,Kotipalle,16.6998,82.038,2023-01-01,1.1,,,,,
Andhra Pradesh,Dr. B.R. Ambedkar KonaseemRaavulapalem,,Annaipeta,16.7898,82.066,2023-01-01,1.4,,,,,
Andhra Pradesh,Dr. B.R. Ambedkar KonaseemRaavulapalem,,Delta Gannavarm,16.5879,81.8885,2023-01-01,2.3,,,,,
Andhra Pradesh,Dr. B.R. Ambedkar KonaseemRaavulapalem,,Draksharamam,16.7921,82.0637,2023-01-01,3.2,,,,,
Andhra Pradesh,Dr. B.R. Ambedkar KonaseemRaavulapalem,,Mummidivarampad,16.7029,81.8325,2023-01-01,1.2,,,,,
Andhra Pradesh,Dr. B.R. Ambedkar KonaseemRaavulapalem,,Tallapolom,16.8168,82.0391,2023-01-01,1.6,,,,,
Andhra Pradesh,Dr. B.R. Ambedkar KonaseemRaavulapalem,,Vegayamma Peta,16.7764,82.08786,2023-01-01,1.8,,,,,
Andhra Pradesh,Dr. B.R. Ambedkar KonaseemRaazole,,Razole,16.48,81.8446,2023-01-01,2.1,,,,,
Andhra Pradesh,Dr. B.R. Ambedkar KonaseemSaakhinetipalle,,Antarvedi,16.3337,81.7332,2023-01-01,1.3,,,,,
Andhra Pradesh,East Godavari,Anaparthy,Anaparthy,16.9384,81.9542,2023-01-01,2.7,16.7829,82.243,25.73,74.53,0.24
Andhra Pradesh,East Godavari,Gokavaram,Bhavujipet,17.2083,81.8467,2023-01-01,4.1,16.7829,82.243,25.73,74.53,0.24
Andhra Pradesh,East Godavari,Gokavaram,Gokavaram,17.2653,81.8475,2023-01-01,2.7,16.7829,82.243,25.73,74.53,0.24
Andhra Pradesh,East Godavari,Gopalapuram,Chityala,17.0895,81.5966,2023-01-01,2.5,16.7829,82.243,25.73,74.53,0.24
Andhra Pradesh,East Godavari,Gopalapuram,Dondapudi,17.2097,81.544,2023-01-01,8.3,16.7829,82.243,25.73,74.53,0.24
Andhra Pradesh,East Godavari,Gopalapuram,Gopalpuram,17.1011,81.5482,2023-01-01,3.0,16.7829,82.243,25.73,74.53,0.24
Andhra Pradesh,East Godavari,Kovvur,I.Pangadi,17.0183,81.6484,2023-01-01,1.4,16.7829,82.243,25.73,74.53,0.24
Andhra Pradesh,East Godavari,Kovvur,Kovvur,17.0036,81.7416,2023-01-01,1.3,16.7829,82.243,25.73,74.53,0.24
Andhra Pradesh,East Godavari,Nallajerla,Nallajerla,16.9451,81.4018,2023-01-01,68.4,16.7829,82.243,25.73,74.53,0.24
Andhra Pradesh,East Godavari,Nidadavole,Goparam,16.916,81.6972,2023-01-01,3.1,16.7829,82.243,25.73,74.53,0.24
Andhra Pradesh,East Godavari,Nidadavole,Munipalli,16.8685,81.7101,2023-01-01,2.1,16.7829,82.243,25.73,74.53,0.24
Andhra Pradesh,East Godavari,Nidadavole,Munipalli,16.8549,81.7143,2023-01-01,0.7,16.7829,82.243,25.73,74.53,0.24
Andhra Pradesh,East Godavari,Nidadavole,Nidadavolu,16.8947,81.6746,2023-01-01,1.3,16.7829,82.243,25.73,74.53,0.24
Andhra Pradesh,East Godavari,Rajahmundry Rural,Dowalaiswaram,16.9392,81.7866,2023-01-01,8.1,16.7829,82.243,25.73,74.53,0.24
Andhra Pradesh,East Godavari,Rajahmundry Rural,Dowalaiswaram,16.9392,81.7866,2023-01-01,9.5,16.7829,82.243,25.73,74.53,0.24
Andhra Pradesh,East Godavari,Rajahmundry Rural,Kolamuru,17.0595,81.8051,2023-01-01,3.4,16.7829,82.243,25.73,74.53,0.24
Andhra Pradesh,East Godavari,Rajahmundry Urban,Rajahmundry,17.0129,81.7828,2023-01-01,2.5,16.7829,82.243,25.73,74.53,0.24
Andhra Pradesh,East Godavari,Rajahmundry Urban,Rajahmundry,16.9915,81.7776,2023-01-01,1.8,16.7829,82.243,25.73,74.53,0.24
Andhra Pradesh,East Godavari,Rajahmundry Urban,Swarajyanagar,16.9726,81.7851,2023-01-01,2.7,16.7829,82.243,25.73,74.53,0.24
Andhra Pradesh,East Godavari,Rajanagaram,Rajanagaram,17.083,81.9065,2023-01-01,2.3,16.7829,82.243,25.73,74.53,0.24
Andhra Pradesh,East Godavari,Rangampeta,Kotapadu,17.0883,82.025,2023-01-01,4.3,16.7829,82.243,25.73,74.53,0.24
Andhra Pradesh,East Godavari,Thallapudi,Tadipudi,17.1633,81.659,2023-01-01,0.5,16.7829,82.243,25.73,74.53,0.24
Andhra Pradesh,East Godavari,Thallapudi,Tallapudi,17.124,81.6687,2023-01-01,0.5,16.7829,82.243,25.73,74.53,0.24
Andhra Pradesh,East Godavari,Thallapudi,Vegeshwarapuram,17.1108,81.6735,2023-01-01,2.6,16.7829,82.243,25.73,74.53,0.24
Andhra Pradesh,Eluru,Agiripalli,Vadlamanu,16.72076,80.8092,2023-01-01,1.3,,,,,
Andhra Pradesh,Eluru,Buttayagudem,Buttayagudem,17.19884,81.31883,2023-01-01,2.2,,,,,
Andhra Pradesh,Eluru,Buttayagudem,Gunjavaram,17.2036,81.4172,2023-01-01,3.0,,,,,
Andhra Pradesh,Eluru,Chintalapudi,Erraguntlapalli,17.14538,81.0098,2023-01-01,5.0,,,,,
Andhra Pradesh,Eluru,Dwarakatirumala,Lakshmipuram,16.93591,81.25314,2023-01-01,1.7,,,,,
Andhra Pradesh,Eluru,Dwarakatirumala,Pottalakattugudem,17.0726,81.25797,2023-01-01,2.9,,,,,
Andhra Pradesh,Eluru,Eluru,Eluru,16.70425,81.08515,2023-01-01,4.1,,,,,
Andhra Pradesh,Eluru,Eluru,Eluru,16.71082,81.11041,2023-01-01,2.2,,,,,
Andhra Pradesh,Eluru,Ganapavaram,Sarepalle,16.6886,81.4654,2023-01-01,3.0,,,,,
Andhra Pradesh,Eluru,Kaikalur,Palevada,16.5794,81.28671,2023-01-01,0.5,,,,,
Andhra Pradesh,Eluru,Kalidindi,Kalidindi,16.50521,81.29016,2023-01-01,2.5,,,,,
Andhra Pradesh,Eluru,Kamavarapukota,Kamavarapukota,17.01219,81.19715,2023-01-01,2.1,,,,,
Andhra Pradesh,Eluru,Koyyalagudem,Kanapuram,17.1878,81.41756,2023-01-01,3.5,,,,,
Andhra Pradesh,Eluru,Koyyalagudem,Koyyalagudem,17.12379,81.42705,2023-01-01,10.3,,,,,
Andhra Pradesh,Eluru,Kukkunur,Amaravaram,17.58533,81.00568,2023-01-01,4.2,,,,,
Andhra Pradesh,Eluru,Kukkunur,Kukkunur,17.55514,81.16536,2023-01-01,4.1,,,,,
Andhra Pradesh,Eluru,Lingapalem,Dharmajigudem,16.89332,80.93496,2023-01-01,8.0,,,,,
Andhra Pradesh,Eluru,Mandavalli,Kaikaluru,16.54512,81.20063,2023-01-01,1.8,,,,,
Andhra Pradesh,Eluru,Mandavalli,Kanukollu,16.46083,81.13434,2023-01-01,1.5,,,,,
Andhra Pradesh,Eluru,Mandavalli,Mandavalli,16.51776,81.16381,2023-01-01,1.1,,,,,
Andhra Pradesh,Eluru,Mudinepalle,Bomminampadu,16.47353,81.21706,2023-01-01,1.5,,,,,
Andhra Pradesh,Eluru,Mudinepalle,Kopparagudem,16.40833,81.17411,2023-01-01,1.6,,,,,
Andhra Pradesh,Eluru,Mudinepalle,Singarayapalem,16.41075,81.15158,2023-01-01,1.6,,,,,
Andhra Pradesh,Eluru,Musunuru,Musunuru,16.82837,80.93506,2023-01-01,10.5,,,,,
Andhra Pradesh,Eluru,Nuzvid,Nuzivedu,16.78681,80.855,2023-01-01,0.7,,,,,
Andhra Pradesh,Eluru,Polavaram,Polavaram,17.25036,81.6459,2023-01-01,5.7,,,,,
Andhra Pradesh,Eluru,Unguturu,Rachuru,16.77608,81.42575,2023-01-01,3.0,,,,,
Andhra Pradesh,Guntur,Chebrole,Chebrolu,16.19964,80.5258,2023-01-01,0.7,16.3067,80.4365,25.29,76.51,0.01
Andhra Pradesh,Guntur,Chebrole,Narakoduru,16.22566,80.5145,2023-01-01,2.0,16.3067,80.4365,25.29,76.51,0.01
Andhra Pradesh,Guntur,Guntur,Budampadu,16.2601,80.4703,2023-01-01,3.8,16.3067,80.4365,25.29,76.51,0.01
Andhra Pradesh,Guntur,Guntur,Etukuru,16.26319,80.42476,2023-01-01,1.9,16.3067,80.4365,25.29,76.51,0.01
Andhra Pradesh,Guntur,Guntur,Guntur,16.29855,80.43186,2023-01-01,2.4,16.3067,80.4365,25.29,76.51,0.01
Andhra Pradesh,Guntur,Guntur,Nallapadu,16.3057,80.3739,2023-01-01,2.3,16.3067,80.4365,25.29,76.51,0.01
Andhra Pradesh,Guntur,Kollipara,Kollipara,16.28664,80.74958,2023-01-01,1.1,16.3067,80.4365,25.29,76.51,0.01
Andhra Pradesh,Guntur,Medikonduru,Medikondur,16.34548,80.30237,2023-01-01,2.9,16.3067,80.4365,25.29,76.51,0.01
Andhra Pradesh,Guntur,Pedanandipadu,Varagani,16.08508,80.32897,2023-01-01,5.9,16.3067,80.4365,25.29,76.51,0.01
Andhra Pradesh,Guntur,Phirangipuram,Pirangipuram,16.28805,80.25652,2023-01-01,5.6,16.3067,80.4365,25.29,76.51,0.01
Andhra Pradesh,Guntur,Ponnur,Kattempudi,16.09379,80.54533,2023-01-01,2.6,16.3067,80.4365,25.29,76.51,0.01
Andhra Pradesh,Guntur,Ponnur,Ponnur,16.06466,80.54306,2023-01-01,3.3,16.3067,80.4365,25.29,76.51,0.01
Andhra Pradesh,Guntur,Prathipadu,Prattipadu,16.18035,80.33181,2023-01-01,1.2,16.3067,80.4365,25.29,76.51,0.01
Andhra Pradesh,Guntur,Tadikonda,Mukkamala,16.45179,80.37504,2023-01-01,5.5,16.3067,80.4365,25.29,76.51,0.01
Andhra Pradesh,Guntur,Tadikonda,Phanidharam,16.36065,80.39687,2023-01-01,3.7,16.3067,80.4365,25.29,76.51,0.01
Andhra Pradesh,Guntur,Tadikonda,Ponnekallu,16.40434,80.40218,2023-01-01,3.4,16.3067,80.4365,25.29,76.51,0.01
Andhra Pradesh,Guntur,Tadikonda,Ravela,16.41808,80.34876,2023-01-01,2.1,16.3067,80.4365,25.29,76.51,0.01
Andhra Pradesh,Guntur,Tadikonda,Tadikonda,16.41654,80.45335,2023-01-01,2.6,16.3067,80.4365,25.29,76.51,0.01
Andhra Pradesh,Guntur,Tenali,Kolakaluru,16.30323,80.61891,2023-01-01,2.0,16.3067,80.4365,25.29,76.51,0.01
Andhra Pradesh,Guntur,Tenali,Sekuru,16.26965,80.58749,2023-01-01,1.4,16.3067,80.4365,25.29,76.51,0.01
Andhra Pradesh,Guntur,Thullur,Mandhadam,16.51444,80.53159,2023-01-01,2.9,16.3067,80.4365,25.29,76.51,0.01
Andhra Pradesh,Guntur,Thullur,Pedda Parimi,16.45981,80.45514,2023-01-01,2.6,16.3067,80.4365,25.29,76.51,0.01
Andhra Pradesh,Guntur,Thullur,Thullur,16.53051,80.4703,2023-01-01,2.6,16.3067,80.4365,25.29,76.51,0.01
Andhra Pradesh,Kakinada,Gollaprolu,Gollaprolu,17.1538,82.2864,2023-01-01,1.6,,,,,
Andhra Pradesh,Kakinada,Kakinada Rural,Anjaneyanagar,17.0094,82.2482,2023-01-01,1.5,,,,,
Andhra Pradesh,Kakinada,Kakinada Rural,Fishing Horbour,16.985,82.2757,2023-01-01,1.3,,,,,
Andhra Pradesh,Kakinada,Kakinada Rural,Kasinadhapuram,16.9248,82.236,2023-01-01,1.3,,,,,
Andhra Pradesh,Kakinada,Kakinada Rural,Repuru,16.9557,82.1893,2023-01-01,1.4,,,,,
Andhra Pradesh,Kakinada,Kakinada Rural,Vakalpudi,17.0137,82.2835,2023-01-01,0.4,,,,,
Andhra Pradesh,Kakinada,Kakinada Urban,Santhacheruvu,16.9503,82.237,2023-01-01,1.2,,,,,
Andhra Pradesh,Kakinada,Pithapuram,Pithapuram,17.1007,82.2462,2023-01-01,0.4,,,,,
Andhra Pradesh,Kakinada,Prathipadu,Dharmavaram,17.227,82.2285,2023-01-01,3.5,,,,,
Andhra Pradesh,Kakinada,Prathipadu,Pratipadu,17.2302,82.1986,2023-01-01,3.5,,,,,
Andhra Pradesh,Kakinada,Routhulapudi,Jaldam,17.4486,82.3317,2023-01-01,2.7,,,,,
Andhra Pradesh,Kakinada,Sankhavaram,G. Kottapalli,17.3068,82.3655,2023-01-01,0.8,,,,,
Andhra Pradesh,Kakinada,Sankhavaram,Kattipudi,17.2429,82.3314,2023-01-01,2.6,,,,,
Andhra Pradesh,Kakinada,Thallarevu,Chollangi,16.8854,82.2339,2023-01-01,1.4,,,,,
Andhra Pradesh,Kakinada,Thallarevu,Tallarevu,16.7828,82.2303,2023-01-01,2.1,,,,,
Andhra Pradesh,Kakinada,Thallarevu,Thurpet,16.7529,82.2289,2023-01-01,1.5,,,,,
Andhra Pradesh,Kakinada,Thondangi,Tammayyapeta,17.2496,82.3708,2023-01-01,2.1,,,,,
Andhra Pradesh,Kakinada,Tuni,Hamsavaram,17.2921,82.4927,2023-01-01,1.3,,,,,
Andhra Pradesh,Kakinada,Tuni,Tetagunda,17.307,82.4429,2023-01-01,3.8,,,,,
Andhra Pradesh,Kakinada,U.Kothapalle,Uppada,17.0805,82.3355,2023-01-01,0.9,,,,,
Andhra Pradesh,Kakinada,Yeleswaram,Gontuvanipalem,17.35472,82.11482,2023-01-01,1.3,,,,,
Andhra Pradesh,Krishna,Avanigadda,Avanigadda,16.02086,80.91149,2023-01-01,4.9,16.216,81.079,25.89,76.84,0.12
Andhra Pradesh,Krishna,Bantumilli,Bantumilli1,16.36972,81.27216,2023-01-01,1.6,16.216,81.079,25.89,76.84,0.12
Andhra Pradesh,Krishna,Bantumilli,Mallapparajgudem,16.40907,81.20812,2023-01-01,1.1,16.216,81.079,25.89,76.84,0.12
Andhra Pradesh,Krishna,Bantumilli,Malleshwaram,16.35511,81.27117,2023-01-01,1.5,16.216,81.079,25.89,76.84,0.12
Andhra Pradesh,Krishna,Bantumilli,Munjuluru,16.3092,81.212,2023-01-01,2.6,16.216,81.079,25.89,76.84,0.12
Andhra Pradesh,Krishna,Challapalli,Challapalli,16.11859,80.9394,2023-01-01,0.9,16.216,81.079,25.89,76.84,0.12
Andhra Pradesh,Krishna,Challapalli,Lankapalli,16.1347,80.9856,2023-01-01,0.8,16.216,81.079,25.89,76.84,0.12
Andhra Pradesh,Krishna,Gannavaram,Bahu Balendruni Gudem,16.57149,80.79161,2023-01-01,3.3,16.216,81.079,25.89,76.84,0.12
Andhra Pradesh,Krishna,Gudivada,Angaluru,16.38194,81.03434,2023-01-01,2.6,16.216,81.079,25.89,76.84,0.12
Andhra Pradesh,Krishna,Gudivada,Kautaram,16.33537,81.07784,2023-01-01,2.1,16.216,81.079,25.89,76.84,0.12
Andhra Pradesh,Krishna,Gudlavalleru,Gudlavalleru,16.34357,81.05475,2023-01-01,4.8,16.216,81.079,25.89,76.84,0.12
Andhra Pradesh,Krishna,Guduru,Gudur,16.22013,81.08494,2023-01-01,1.1,16.216,81.079,25.89,76.84,0.12
Andhra Pradesh,Krishna,Koduru,Koduru,16.00734,81.02759,2023-01-01,2.0,16.216,81.079,25.89,76.84,0.12
Andhra Pradesh,Krishna,Koduru,Mandapakala,15.97411,81.00007,2023-01-01,2.4,16.216,81.079,25.89,76.84,0.12
Andhra Pradesh,Krishna,Machilipatnam,Sultan Nagar,16.20014,81.11369,2023-01-01,2.8,16.216,81.079,25.89,76.84,0.12
Andhra Pradesh,Krishna,Movva,Ayyanki,16.26568,80.94375,2023-01-01,8.6,16.216,81.079,25.89,76.84,0.12
Andhra Pradesh,Krishna,Movva,Movva,16.2269,80.9129,2023-01-01,1.0,16.216,81.079,25.89,76.84,0.12
Andhra Pradesh,Krishna,Nagayalanka,Marripalem,15.94947,80.92235,2023-01-01,3.1,16.216,81.079,25.89,76.84,0.12
Andhra Pradesh,Krishna,Nandivada,Polukonda,16.51948,81.07816,2023-01-01,0.4,16.216,81.079,25.89,76.84,0.12
Andhra Pradesh,Krishna,Pamarru,Kurumaddali,16.3311,80.92607,2023-01-01,1.9,16.216,81.079,25.89,76.84,0.12
Andhra Pradesh,Krishna,Pamarru,Nimmakuru,16.27474,81.0052,2023-01-01,3.8,16.216,81.079,25.89,76.84,0.12
Andhra Pradesh,Krishna,Pedana,Balliparru,16.27747,81.18728,2023-01-01,1.1,16.216,81.079,25.89,76.84,0.12
Andhra Pradesh,Krishna,Pedana,Nadupur,16.28296,81.12932,2023-01-01,2.6,16.216,81.079,25.89,76.84,0.12
Andhra Pradesh,Krishna,Pedana,Pedana,16.25839,81.14948,2023-01-01,1.9,16.216,81.079,25.89,76.84,0.12
Andhra Pradesh,Krishna,Pedaparupudi,Venkatapragada,16.44202,80.91022,2023-01-01,2.6,16.216,81.079,25.89,76.84,0.12
Andhra Pradesh,Krishna,Vuyyuru,Akunuru,16.39206,80.81895,2023-01-01,2.2,16.216,81.079,25.89,76.84,0.12
Andhra Pradesh,Krishna,Vuyyuru,Kadavakollu,16.39653,80.85242,2023-01-01,3.1,16.216,81.079,25.89,76.84,0.12
Andhra Pradesh,Krishna,Vuyyuru,Tadanki,16.35812,80.88031,2023-01-01,3.0,16.216,81.079,25.89,76.84,0.12
Andhra Pradesh,Kurnool,Adoni,Adoni Kota Veerabhadraswamig1u5d.6i 6670,,77.2875,2023-01-01,4.1,15.8281,78.0373,24.99,62.06,0.0
Andhra Pradesh,Kurnool,Adoni,Doddanakere,15.69934,77.2849,2023-01-01,6.7,15.8281,78.0373,24.99,62.06,0.0
Andhra Pradesh,Kurnool,Adoni,Naganathanahalli,15.5607,77.22214,2023-01-01,4.5,15.8281,78.0373,24.99,62.06,0.0
Andhra Pradesh,Kurnool,Devanakonda,Karivemula,15.5942,77.5967,2023-01-01,0.4,15.8281,78.0373,24.99,62.06,0.0
Andhra Pradesh,Kurnool,Gonegandla,Gonegandla,15.7079,77.6142,2023-01-01,1.6,15.8281,78.0373,24.99,62.06,0.0
Andhra Pradesh,Kurnool,Gonegandla,Gonegondla,15.7117,77.5963,2023-01-01,1.2,15.8281,78.0373,24.99,62.06,0.0
Andhra Pradesh,Kurnool,Gudur,Gudur,15.7726,77.8074,2023-01-01,6.2,15.8281,78.0373,24.99,62.06,0.0
Andhra Pradesh,Kurnool,Halaharvi,Bapuram,15.3323,77.1262,2023-01-01,2.0,15.8281,78.0373,24.99,62.06,0.0
Andhra Pradesh,Kurnool,Halaharvi,Gulyam,15.36012,77.0639,2023-01-01,6.2,15.8281,78.0373,24.99,62.06,0.0
Andhra Pradesh,Kurnool,Halaharvi,Haradgiri,15.3012,77.18819,2023-01-01,5.8,15.8281,78.0373,24.99,62.06,0.0
Andhra Pradesh,Kurnool,Holagunda,Sullavai,15.4321,77.1222,2023-01-01,4.2,15.8281,78.0373,24.99,62.06,0.0
Andhra Pradesh,Kurnool,Kodumur,Kodumuru,15.6857,77.7736,2023-01-01,4.1,15.8281,78.0373,24.99,62.06,0.0
Andhra Pradesh,Kurnool,Kodumur,Pylakurthi,15.7151,77.8131,2023-01-01,2.4,15.8281,78.0373,24.99,62.06,0.0
Andhra Pradesh,Kurnool,Kowthalam,Bapuram,15.7882,77.08347,2023-01-01,3.2,15.8281,78.0373,24.99,62.06,0.0
Andhra Pradesh,Kurnool,Kowthalam,Podalakunta,15.8432,77.1147,2023-01-01,2.6,15.8281,78.0373,24.99,62.06,0.0
Andhra Pradesh,Kurnool,Kurnool,Kurnool,15.8385,78.0494,2023-01-01,4.6,15.8281,78.0373,24.99,62.06,0.0
Andhra Pradesh,Kurnool,Mantralayam,Madhavaram,15.9354,77.3561,2023-01-01,1.3,15.8281,78.0373,24.99,62.06,0.0
Andhra Pradesh,Kurnool,Mantralayam,Tungabhadra,15.9478,77.3014,2023-01-01,3.1,15.8281,78.0373,24.99,62.06,0.0
Andhra Pradesh,Kurnool,Orvakal,Orvakallu,15.6858,78.1758,2023-01-01,2.5,15.8281,78.0373,24.99,62.06,0.0
Andhra Pradesh,Kurnool,Pattikonda,Rajala Mandagiri,15.4359,77.4735,2023-01-01,0.4,15.8281,78.0373,24.99,62.06,0.0
Andhra Pradesh,Kurnool,Veldurthi,Veldurthy,15.5531,77.9269,2023-01-01,2.0,15.8281,78.0373,24.99,62.06,0.0
Andhra Pradesh,Kurnool,Yemmiganur,Yemmiganur,15.7556,77.4582,2023-01-01,2.1,15.8281,78.0373,24.99,62.06,0.0
Andhra Pradesh,Kurnool,Yemmiganur,Yemmiganur,15.7568,77.4583,2023-01-01,2.8,15.8281,78.0373,24.99,62.06,0.0
Andhra Pradesh,Nandyal,Allagadda,Battulur,15.2452,78.50578,2023-01-01,3.6,,,,,
Andhra Pradesh,Nandyal,Atmakur,Atmakur,15.87427,78.57705,2023-01-01,1.5,,,,,
Andhra Pradesh,Nandyal,Atmakur,Venkatapuram,15.88315,78.6544,2023-01-01,2.5,,,,,
Andhra Pradesh,Nandyal,Banaganapalle,Banaganapalli,15.31297,78.22714,2023-01-01,4.5,,,,,
Andhra Pradesh,Nandyal,Banaganapalle,Pathapadu,15.33489,78.1549,2023-01-01,7.0,,,,,
Andhra Pradesh,Nandyal,Bandi Atmakur,Santajutur,15.62604,78.53436,2023-01-01,0.4,,,,,
Andhra Pradesh,Nandyal,Gadivemula,Gudivemula,15.66742,78.44095,2023-01-01,1.8,,,,,
Andhra Pradesh,Nandyal,Kolimigundla,Kolimigundla,15.07472,78.1078,2023-01-01,5.9,,,,,
Andhra Pradesh,Nandyal,Mahanandi,Mahanandi,15.46921,78.61999,2023-01-01,3.8,,,,,
Andhra Pradesh,Nandyal,Nandikotkur,Nandikotkur,15.85667,78.26411,2023-01-01,2.2,,,,,
Andhra Pradesh,Nandyal,Nandyal,Nandyal,15.48917,78.49468,2023-01-01,0.1,,,,,
Andhra Pradesh,Nandyal,Pagidyala,Moravakonda,15.95924,78.28763,2023-01-01,1.7,,,,,
Andhra Pradesh,Nandyal,Pamulapadu,Rudravaram,15.85028,78.47074,2023-01-01,1.1,,,,,
Andhra Pradesh,Nandyal,Panyam,Alamuru,15.45821,78.3248,2023-01-01,3.0,,,,,
Andhra Pradesh,Nandyal,Rudravaram,Ahobilam,15.13398,78.67252,2023-01-01,7.9,,,,,
Andhra Pradesh,Nandyal,Sanjamala,Nossam,14.98822,78.39186,2023-01-01,3.0,,,,,
Andhra Pradesh,Nandyal,Srisailam,Srisailam,16.07588,78.8671,2023-01-01,1.1,,,,,
Andhra Pradesh,Nandyal,Velugodu,G Regadi Gudur,15.71271,78.47841,2023-01-01,1.1,,,,,
Andhra Pradesh,Ntr,A.Konduru,Ramchandrapuram,16.87266,80.63975,2023-01-01,1.7,,,,,
Andhra Pradesh,Ntr,Gampalagudem,Gampala Gudem,16.9996,80.52424,2023-01-01,2.3,,,,,
Andhra Pradesh,Ntr,Gampalagudem,Garikapadu,16.95097,80.05233,2023-01-01,2.4,,,,,
Andhra Pradesh,Ntr,Gampalagudem,Veenagadapa,16.97207,80.53118,2023-01-01,2.5,,,,,
Andhra Pradesh,Ntr,Ibrahimpatnam,Ibrahimpatnam,16.58959,80.52203,2023-01-01,1.0,,,,,
Andhra Pradesh,Ntr,Jaggayyapeta,Muktyala,16.8273,80.076,2023-01-01,21.4,,,,,
Andhra Pradesh,Ntr,Kanchikacherla,Kanchikacharla,16.67457,80.3988,2023-01-01,3.3,,,,,
Andhra Pradesh,Ntr,Mylavaram,Chandragudem,16.80788,80.63011,2023-01-01,5.9,,,,,
Andhra Pradesh,Ntr,Mylavaram,Mailavaram,16.75266,80.63925,2023-01-01,1.7,,,,,
Andhra Pradesh,Ntr,Nandigama,Annasagaram,16.78926,80.27355,2023-01-01,9.9,,,,,
Andhra Pradesh,Ntr,Nandigama,Itavaram,16.73498,80.30439,2023-01-01,3.5,,,,,
Andhra Pradesh,Ntr,Penuganchiprolu,Penuganchiprolu,16.90186,80.24724,2023-01-01,2.5,,,,,
Andhra Pradesh,Ntr,Reddigudem,Kottareddigudem,16.87677,80.74138,2023-01-01,4.5,,,,,
Andhra Pradesh,Ntr,Tiruvuru,Chintalapadu,17.03118,80.55562,2023-01-01,0.4,,,,,
Andhra Pradesh,Ntr,Tiruvuru,Kakarla,17.05607,80.63534,2023-01-01,4.2,,,,,
Andhra Pradesh,Ntr,Tiruvuru,Tiruvur,17.11435,80.6142,2023-01-01,3.5,,,,,
Andhra Pradesh,Ntr,Tiruvuru,Tiruvuru,17.09872,80.61297,2023-01-01,2.8,,,,,
Andhra Pradesh,Ntr,Vatsavai,Makkapeta,16.92517,80.1915,2023-01-01,3.5,,,,,
Andhra Pradesh,Ntr,Veerullapadu,Jagannathapuram,16.72952,80.41001,2023-01-01,10.2,,,,,
Andhra Pradesh,Ntr,Vijayawada Rural,A Konduru,16.96322,80.64803,2023-01-01,5.6,,,,,
Andhra Pradesh,Ntr,Vissannapet,Vissannapet,16.942,80.78355,2023-01-01,2.8,,,,,
Andhra Pradesh,Palnadu,Amaravathi,Amaravati,16.5733,80.3612,2023-01-01,1.3,,,,,
Andhra Pradesh,Palnadu,Amaravathi,Narakullapadu,16.5329,80.3663,2023-01-01,1.7,,,,,
Andhra Pradesh,Palnadu,Amaravathi,Ungutur,16.4941,80.3645,2023-01-01,1.9,,,,,
Andhra Pradesh,Palnadu,Amaravathi,Vykuntapuram,16.566,80.4127,2023-01-01,1.6,,,,,
Andhra Pradesh,Palnadu,Amaravathi,Zupudi,16.5661,80.2572,2023-01-01,2.4,,,,,
Andhra Pradesh,Palnadu,Bellamkonda,Bellamkonda,16.4922,80.0076,2023-01-01,7.9,,,,,
Andhra Pradesh,Palnadu,Bollapalle,Gandiganumula,16.29711,79.57545,2023-01-01,10.2,,,,,
Andhra Pradesh,Palnadu,Bollapalle,Vellatur,16.1193,79.6506,2023-01-01,2.4,,,,,
Andhra Pradesh,Palnadu,Chilakaluripet,Chilkaluripet,16.0851,80.1765,2023-01-01,1.3,,,,,
Andhra Pradesh,Palnadu,Chilakaluripet,Kavuru,16.14191,80.12124,2023-01-01,1.3,,,,,
Andhra Pradesh,Palnadu,Chilakaluripet,Maddirala,16.0947,80.0909,2023-01-01,2.9,,,,,
Andhra Pradesh,Palnadu,Dachepalle,Dachepalle,16.59833,79.72838,2023-01-01,4.1,,,,,
Andhra Pradesh,Palnadu,Edlapadu,Timmapuram,16.1491,80.2048,2023-01-01,4.6,,,,,
Andhra Pradesh,Palnadu,Gurazala,Gurazala,16.558,79.6325,2023-01-01,0.2,,,,,
Andhra Pradesh,Palnadu,Ipur,A. Muppalla,16.2434,79.8415,2023-01-01,2.1,,,,,
Andhra Pradesh,Palnadu,Ipur,Ipur,16.226,79.7768,2023-01-01,0.7,,,,,
Andhra Pradesh,Palnadu,Ipur,Kocherla,16.1492,79.7582,2023-01-01,0.2,,,,,
Andhra Pradesh,Palnadu,Krosuru,Krosur,16.5429,80.1393,2023-01-01,1.9,,,,,
Andhra Pradesh,Palnadu,Krosuru,Pisapadu,16.4979,80.1431,2023-01-01,3.4,,,,,
Andhra Pradesh,Palnadu,Krosuru,Utukuru,16.566,80.2018,2023-01-01,1.6,,,,,
Andhra Pradesh,Palnadu,Machavaram,Murjampadu,16.5906,79.9084,2023-01-01,5.5,,,,,
Andhra Pradesh,Palnadu,Machavaram,Pillutla,16.5385,79.9057,2023-01-01,2.2,,,,,
Andhra Pradesh,Palnadu,Muppalla,Golapadu,16.3067,80.0833,2023-01-01,1.9,,,,,
Andhra Pradesh,Palnadu,Nadendla,Nadendla,16.1762,80.1843,2023-01-01,2.7,,,,,
Andhra Pradesh,Palnadu,Narasaraopeta,Jonnalagadda,16.2418,80.0829,2023-01-01,1.5,,,,,
Andhra Pradesh,Palnadu,Narasaraopeta,Lingamguntla,16.231,80.0318,2023-01-01,3.7,,,,,
Andhra Pradesh,Palnadu,Narasaraopeta,Pamidimarru,16.1286,80.022,2023-01-01,4.9,,,,,
Andhra Pradesh,Palnadu,Nekarikallu,Velpur,16.12961,79.86519,2023-01-01,2.9,,,,,
Andhra Pradesh,Palnadu,Nuzendla,Inovolu,15.9932,79.6704,2023-01-01,0.7,,,,,
Andhra Pradesh,Palnadu,Piduguralla,Brahmanpalli,16.5174,79.8311,2023-01-01,2.9,,,,,
Andhra Pradesh,Palnadu,Piduguralla,Guttikonda,16.4306,79.8322,2023-01-01,3.0,,,,,
Andhra Pradesh,Palnadu,Piduguralla,Thummalacheruvu,16.5255,79.7987,2023-01-01,3.6,,,,,
Andhra Pradesh,Palnadu,Rajupalem,Anupalem,16.46352,79.95878,2023-01-01,3.8,,,,,
Andhra Pradesh,Palnadu,Rajupalem,Kondamodu,16.4608,79.9206,2023-01-01,2.8,,,,,
Andhra Pradesh,Palnadu,Rajupalem,Kondamodu,16.46125,79.92031,2023-01-01,7.2,,,,,
Andhra Pradesh,Palnadu,Rentachintala,Rentachintala,16.5514,79.5477,2023-01-01,0.9,,,,,
Andhra Pradesh,Palnadu,Rentachintala,Tummurukota,16.55819,79.46019,2023-01-01,1.6,,,,,
Andhra Pradesh,Palnadu,Rompicherla,Rompicherla,16.21,79.9133,2023-01-01,2.1,,,,,
Andhra Pradesh,Palnadu,Rompicherla,Santagudipadu,16.2534,79.9141,2023-01-01,3.2,,,,,
Andhra Pradesh,Palnadu,Sattenapalle,Rentapalle,16.4713,80.1364,2023-01-01,3.7,,,,,
Andhra Pradesh,Palnadu,Sattenapalle,Sattenapalli,16.4063,80.1479,2023-01-01,2.2,,,,,
Andhra Pradesh,Palnadu,Veldurthy,Mandadi,16.4084,79.4054,2023-01-01,5.3,,,,,
Andhra Pradesh,Palnadu,Veldurthy,Sirigiripadu,16.3043,79.3263,2023-01-01,7.2,,,,,
Andhra Pradesh,Palnadu,Vinukonda,Gonuguntla Varipalem,16.0276,79.7929,2023-01-01,1.8,,,,,
Andhra Pradesh,Palnadu,Vinukonda,Vinukonda,16.0519,79.7434,2023-01-01,3.6,,,,,
Andhra Pradesh,Parvathipuram Manyam,Balijipeta,Balajipet,18.61133,83.5286,2023-01-01,3.1,,,,,
Andhra Pradesh,Parvathipuram Manyam,Balijipeta,Chilakalapalli,18.59297,83.53333,2023-01-01,2.4,,,,,
Andhra Pradesh,Parvathipuram Manyam,Komarada,Gangaraivalasa,18.85779,83.45795,2023-01-01,5.2,,,,,
Andhra Pradesh,Parvathipuram Manyam,Komarada,Komarada,18.89838,83.46246,2023-01-01,7.4,,,,,
Andhra Pradesh,Parvathipuram Manyam,Komarada,Vikrampuram,18.81211,83.44511,2023-01-01,2.2,,,,,
Andhra Pradesh,Parvathipuram Manyam,Kurupam,Gumma,18.95874,83.64385,2023-01-01,2.1,,,,,
Andhra Pradesh,Parvathipuram Manyam,Kurupam,Kurupana,18.86602,83.55304,2023-01-01,5.3,,,,,
Andhra Pradesh,Parvathipuram Manyam,Makkuva,Payakapadu,18.64645,83.27307,2023-01-01,2.0,,,,,
Andhra Pradesh,Parvathipuram Manyam,Palakonda,Palakonda,18.59812,83.76553,2023-01-01,6.2,,,,,
Andhra Pradesh,Parvathipuram Manyam,Palakonda,Thumarada,18.60846,83.71434,2023-01-01,6.2,,,,,
Andhra Pradesh,Parvathipuram Manyam,Parvathipuram,Parvatipuram,18.77248,83.42375,2023-01-01,3.6,,,,,
Andhra Pradesh,Parvathipuram Manyam,Salur,Saluru,18.52449,83.20765,2023-01-01,7.3,,,,,
Andhra Pradesh,Parvathipuram Manyam,Salur,Sanyasirajupeta,18.5173,83.20788,2023-01-01,3.2,,,,,
Andhra Pradesh,Parvathipuram Manyam,Seethampeta,Haddubangi,18.732,83.8257,2023-01-01,4.2,,,,,
Andhra Pradesh,Parvathipuram Manyam,Seethampeta,Sitampeta,18.69251,83.81716,2023-01-01,6.4,,,,,
Andhra Pradesh,Parvathipuram Manyam,Seethanagaram,Appayyapet,18.67715,83.37247,2023-01-01,3.2,,,,,
Andhra Pradesh,Parvathipuram Manyam,Veeraghattam,Veeraghattam,18.68731,83.61234,2023-01-01,3.7,,,,,
Andhra Pradesh,Parvathipuram Manyam,Veeraghattam,Veeraghattam,18.68654,83.61533,2023-01-01,1.7,,,,,
Andhra Pradesh,Prakasam,Ardhaveedu,Maguturu,15.6913,79.0833,2023-01-01,9.1,15.5057,80.0499,24.68,80.81,0.0
Andhra Pradesh,Prakasam,Bestavaripeta,Bestavaripeta,15.5537,79.1088,2023-01-01,5.2,15.5057,80.0499,24.68,80.81,0.0
Andhra Pradesh,Prakasam,Bestavaripeta,Somavaripeta,15.5579,79.107,2023-01-01,4.6,15.5057,80.0499,24.68,80.81,0.0
Andhra Pradesh,Prakasam,Chandra Sekhara PuramC.S. Puram,,15.1831,79.2747,2023-01-01,0.4,15.5057,80.0499,24.68,80.81,0.0
Andhra Pradesh,Prakasam,Chimakurthi,Chimakurti,15.58835,79.84234,2023-01-01,2.9,15.5057,80.0499,24.68,80.81,0.0
Andhra Pradesh,Prakasam,Cumbum,Porumamilapalli,15.5622,79.0881,2023-01-01,1.5,15.5057,80.0499,24.68,80.81,0.0
Andhra Pradesh,Prakasam,Cumbum,Turumella,15.5228,78.9861,2023-01-01,1.4,15.5057,80.0499,24.68,80.81,0.0
Andhra Pradesh,Prakasam,Darsi,Botla Palem,15.73409,79.78029,2023-01-01,0.5,15.5057,80.0499,24.68,80.81,0.0
Andhra Pradesh,Prakasam,Darsi,Darsi,15.7625,79.6767,2023-01-01,3.2,15.5057,80.0499,24.68,80.81,0.0
Andhra Pradesh,Prakasam,Donakonda,Donakonda,15.831,79.4872,2023-01-01,2.3,15.5057,80.0499,24.68,80.81,0.0
Andhra Pradesh,Prakasam,Donakonda,P Venkatapuram,15.7625,79.4762,2023-01-01,23.8,15.5057,80.0499,24.68,80.81,0.0
Andhra Pradesh,Prakasam,Donakonda,Rudrasamudram,15.8375,79.3969,2023-01-01,15.2,15.5057,80.0499,24.68,80.81,0.0
Andhra Pradesh,Prakasam,Dornala,Hasnabad,15.8934,79.1243,2023-01-01,16.1,15.5057,80.0499,24.68,80.81,0.0
Andhra Pradesh,Prakasam,Giddaluru,Mundlapadu,15.3422,78.9035,2023-01-01,14.8,15.5057,80.0499,24.68,80.81,0.0
Andhra Pradesh,Prakasam,Komarolu,Ramavari Palli,15.2604,78.9554,2023-01-01,9.7,15.5057,80.0499,24.68,80.81,0.0
Andhra Pradesh,Prakasam,Kondapi,Kondepi,15.4133,79.8681,2023-01-01,9.1,15.5057,80.0499,24.68,80.81,0.0
Andhra Pradesh,Prakasam,Kurichedu,Vengaiahpalem,15.9236,79.5942,2023-01-01,1.8,15.5057,80.0499,24.68,80.81,0.0
Andhra Pradesh,Prakasam,Maddipadu,Maddipadu,15.6121,80.0259,2023-01-01,3.4,15.5057,80.0499,24.68,80.81,0.0
Andhra Pradesh,Prakasam,Markapur,Kandivanipalle,15.7,79.2957,2023-01-01,44.5,15.5057,80.0499,24.68,80.81,0.0
Andhra Pradesh,Prakasam,Markapur,Komatikunta,15.7525,79.2285,2023-01-01,35.2,15.5057,80.0499,24.68,80.81,0.0
Andhra Pradesh,Prakasam,Marripudi,Juvvigunta,15.4339,79.7289,2023-01-01,4.4,15.5057,80.0499,24.68,80.81,0.0
Andhra Pradesh,Prakasam,Mundlamuru,Marella,15.8713,79.9039,2023-01-01,0.9,15.5057,80.0499,24.68,80.81,0.0
Andhra Pradesh,Prakasam,Mundlamuru,Voolagallu,15.80735,79.7807,2023-01-01,1.1,15.5057,80.0499,24.68,80.81,0.0
Andhra Pradesh,Prakasam,Naguluppala Padu,Chedalavada,15.60837,80.09308,2023-01-01,1.0,15.5057,80.0499,24.68,80.81,0.0
Andhra Pradesh,Prakasam,Naguluppala Padu,Uppugundur,15.6753,80.1639,2023-01-01,1.2,15.5057,80.0499,24.68,80.81,0.0
Andhra Pradesh,Prakasam,Ongole,Ongole,15.50935,80.0473,2023-01-01,1.0,15.5057,80.0499,24.68,80.81,0.0
Andhra Pradesh,Prakasam,Pamur,Ayyavarepalli,15.1126,79.5663,2023-01-01,7.1,15.5057,80.0499,24.68,80.81,0.0
Andhra Pradesh,Prakasam,Pamur,Malakonda,15.1152,79.6387,2023-01-01,0.4,15.5057,80.0499,24.68,80.81,0.0
Andhra Pradesh,Prakasam,Pamur,Veggampalli,15.1739,79.4433,2023-01-01,1.4,15.5057,80.0499,24.68,80.81,0.0
Andhra Pradesh,Prakasam,Pedacherlo Palle,Guntu Palle,15.1504,79.5308,2023-01-01,1.9,15.5057,80.0499,24.68,80.81,0.0
Andhra Pradesh,Prakasam,Pedacherlo Palle,P C Palli,15.2703,79.5744,2023-01-01,2.8,15.5057,80.0499,24.68,80.81,0.0
Andhra Pradesh,Prakasam,Pedacherlo Palle,Pedda Alavalapadu,15.3272,79.6267,2023-01-01,4.4,15.5057,80.0499,24.68,80.81,0.0
Andhra Pradesh,Prakasam,Podili,Agraharam,15.59446,79.68223,2023-01-01,6.5,15.5057,80.0499,24.68,80.81,0.0
Andhra Pradesh,Prakasam,Podili,Katurivaripalem,15.598,79.6398,2023-01-01,9.2,15.5057,80.0499,24.68,80.81,0.0
Andhra Pradesh,Prakasam,Podili,Oneguruvaipalem,15.6825,79.6461,2023-01-01,7.9,15.5057,80.0499,24.68,80.81,0.0
Andhra Pradesh,Prakasam,Podili,Tallamalla,15.5933,79.7267,2023-01-01,4.6,15.5057,80.0499,24.68,80.81,0.0
Andhra Pradesh,Prakasam,Ponnaluru,Muttarasupalem,15.2486,79.8408,2023-01-01,2.4,15.5057,80.0499,24.68,80.81,0.0
Andhra Pradesh,Prakasam,Ponnaluru,Venkupalem,15.3022,79.7469,2023-01-01,5.1,15.5057,80.0499,24.68,80.81,0.0
Andhra Pradesh,Prakasam,Ponnaluru,Venkupalem,15.30291,79.7413,2023-01-01,5.7,15.5057,80.0499,24.68,80.81,0.0
Andhra Pradesh,Prakasam,Santhanuthala Padu,Santanutalapadu,15.5461,79.9394,2023-01-01,4.5,15.5057,80.0499,24.68,80.81,0.0
Andhra Pradesh,Prakasam,Tripuranthakam,Gollapalli,15.9267,79.3964,2023-01-01,1.1,15.5057,80.0499,24.68,80.81,0.0
Andhra Pradesh,Prakasam,Tripuranthakam,Guttalaumadivrm,16.01712,79.56061,2023-01-01,2.4,15.5057,80.0499,24.68,80.81,0.0
Andhra Pradesh,Sri Potti Sriramulu Nellore,Allur,Alluru,14.68048,80.05001,2023-01-01,1.5,,,,,
Andhra Pradesh,Sri Potti Sriramulu Nellore,Allur,Isakapalli,14.73338,80.09681,2023-01-01,1.3,,,,,
Andhra Pradesh,Sri Potti Sriramulu Nellore,Atmakur,Atmakur,14.64637,79.61362,2023-01-01,2.6,,,,,
Andhra Pradesh,Sri Potti Sriramulu Nellore,Atmakur,Karatamoadu,14.67953,79.53852,2023-01-01,1.4,,,,,
Andhra Pradesh,Sri Potti Sriramulu Nellore,Atmakur,Vasili,14.61695,79.67268,2023-01-01,1.5,,,,,
Andhra Pradesh,Sri Potti Sriramulu Nellore,Bogole,Bitragunta,14.76601,80.00311,2023-01-01,1.3,,,,,
Andhra Pradesh,Sri Potti Sriramulu Nellore,Bogole,Kada Nutala,14.79097,79.99968,2023-01-01,0.2,,,,,
Andhra Pradesh,Sri Potti Sriramulu Nellore,Chejerla,Aduripalli,14.44264,79.60458,2023-01-01,5.3,,,,,
Andhra Pradesh,Sri Potti Sriramulu Nellore,Chejerla,Bodipadu,14.51642,79.57495,2023-01-01,5.1,,,,,
Andhra Pradesh,Sri Potti Sriramulu Nellore,Chejerla,Nagulavellaturu,14.49425,79.51952,2023-01-01,1.6,,,,,
Andhra Pradesh,Sri Potti Sriramulu Nellore,Dagadarthi,Sunnapubatti,14.68174,79.97377,2023-01-01,1.9,,,,,
Andhra Pradesh,Sri Potti Sriramulu Nellore,Duttalur,Brehmeshwaram,14.8545,79.45924,2023-01-01,4.0,,,,,
Andhra Pradesh,Sri Potti Sriramulu Nellore,Duttalur,Nandipadu,14.8059,79.34457,2023-01-01,3.5,,,,,
Andhra Pradesh,Sri Potti Sriramulu Nellore,Jaladanki,Thommidho Mile,14.86425,79.88461,2023-01-01,0.3,,,,,
Andhra Pradesh,Sri Potti Sriramulu Nellore,Kaligiri,Chinna Annaluru,14.9103,79.68415,2023-01-01,2.6,,,,,
Andhra Pradesh,Sri Potti Sriramulu Nellore,Kaligiri,Dubagunta,14.916,79.72476,2023-01-01,1.5,,,,,
Andhra Pradesh,Sri Potti Sriramulu Nellore,Kaligiri,Kaligiri,14.82872,79.69651,2023-01-01,0.5,,,,,
Andhra Pradesh,Sri Potti Sriramulu Nellore,Kaluvoya,Kaluvaya,14.5113,79.41278,2023-01-01,3.0,,,,,
Andhra Pradesh,Sri Potti Sriramulu Nellore,Kandukur,Kandukur,15.21853,79.9115,2023-01-01,1.1,,,,,
Andhra Pradesh,Sri Potti Sriramulu Nellore,Kavali,Kavali,14.90866,79.99386,2023-01-01,0.8,,,,,
Andhra Pradesh,Sri Potti Sriramulu Nellore,Kodavalur,North Rajupalem,14.55709,79.98958,2023-01-01,1.3,,,,,
Andhra Pradesh,Sri Potti Sriramulu Nellore,Kondapuram,Kondapuram,14.99231,79.68212,2023-01-01,3.4,,,,,
Andhra Pradesh,Sri Potti Sriramulu Nellore,Kovur,Kovvuru,14.50273,79.98525,2023-01-01,0.2,,,,,
Andhra Pradesh,Sri Potti Sriramulu Nellore,Lingasamudram,Pentrala,15.0722,79.7147,2023-01-01,5.5,,,,,
Andhra Pradesh,Sri Potti Sriramulu Nellore,Manubolu,Manubolu,14.19191,79.87183,2023-01-01,1.7,,,,,
Andhra Pradesh,Sri Potti Sriramulu Nellore,Manubolu,Vadlapudi,14.30307,79.77921,2023-01-01,1.9,,,,,
Andhra Pradesh,Sri Potti Sriramulu Nellore,Marripadu,Bata,14.71863,79.22008,2023-01-01,3.4,,,,,
Andhra Pradesh,Sri Potti Sriramulu Nellore,Muthukur,Brahmadevam,14.34904,80.06427,2023-01-01,1.2,,,,,
Andhra Pradesh,Sri Potti Sriramulu Nellore,Muthukur,Muthukuru,14.29006,80.09472,2023-01-01,2.4,,,,,
Andhra Pradesh,Sri Potti Sriramulu Nellore,Nellore Rural,Nellore,14.4366,79.96418,2023-01-01,3.5,,,,,
Andhra Pradesh,Sri Potti Sriramulu Nellore,Podalakur,Podalakur,14.38095,79.73099,2023-01-01,1.1,,,,,
Andhra Pradesh,Sri Potti Sriramulu Nellore,Podalakur,Shanti Nagar,14.42992,79.76156,2023-01-01,0.3,,,,,
Andhra Pradesh,Sri Potti Sriramulu Nellore,Podalakur,Tatiparthi,14.51794,79.7661,2023-01-01,0.5,,,,,
Andhra Pradesh,Sri Potti Sriramulu Nellore,Rapur,Penubarti,14.34283,79.4717,2023-01-01,3.2,,,,,
Andhra Pradesh,Sri Potti Sriramulu Nellore,Rapur,Rapur,14.20146,79.53513,2023-01-01,3.4,,,,,
Andhra Pradesh,Sri Potti Sriramulu Nellore,Sangam,Sangam,14.58751,79.7432,2023-01-01,1.3,,,,,
Andhra Pradesh,Sri Potti Sriramulu Nellore,Udayagiri,Udayagiri,14.87614,79.31101,2023-01-01,6.0,,,,,
Andhra Pradesh,Sri Potti Sriramulu Nellore,Ulavapadu,Chagollu,15.11691,80.00647,2023-01-01,1.1,,,,,
Andhra Pradesh,Sri Potti Sriramulu Nellore,Ulavapadu,Ulavapadu,15.1631,80.0091,2023-01-01,1.1,,,,,
Andhra Pradesh,Sri Potti Sriramulu Nellore,Venkatachalam,Kanupur,14.32886,79.90271,2023-01-01,1.4,,,,,
Andhra Pradesh,Sri Potti Sriramulu Nellore,Venkatachalam,Sarvepalli,14.29116,79.96563,2023-01-01,3.5,,,,,
Andhra Pradesh,Sri Potti Sriramulu Nellore,Venkatachalam,Venkatachalam,14.32889,79.92748,2023-01-01,1.2,,,,,
Andhra Pradesh,Sri Potti Sriramulu Nellore,Vidavalur,Choukacherla,14.6136,80.0472,2023-01-01,0.3,,,,,
Andhra Pradesh,Sri Potti Sriramulu Nellore,Vidavalur,Ramathirdam,14.63985,80.14294,2023-01-01,1.4,,,,,
Andhra Pradesh,Sri Potti Sriramulu Nellore,Voletivari Palem,Malakonda,15.11749,79.64036,2023-01-01,4.7,,,,,
Andhra Pradesh,Sri Potti Sriramulu Nellore,Voletivari Palem,Pokur,15.17841,79.8179,2023-01-01,0.3,,,,,
Andhra Pradesh,Sri Sathya Sai,Amadagur,Amadguru,13.88858,78.02268,2023-01-01,2.7,,,,,
Andhra Pradesh,Sri Sathya Sai,Amadagur,Mohammadabad,13.9713,78.008,2023-01-01,12.3,,,,,
Andhra Pradesh,Sri Sathya Sai,Amarapuram,Palasamudram,13.9605,77.6761,2023-01-01,0.6,,,,,
Andhra Pradesh,Sri Sathya Sai,Bathalapalle,Sanjivapuram,14.5487,77.7326,2023-01-01,0.8,,,,,
Andhra Pradesh,Sri Sathya Sai,Chennekothapalle,Chenna Kothapalli,14.27033,77.6254,2023-01-01,3.1,,,,,
Andhra Pradesh,Sri Sathya Sai,Dharmavaram,Dharmavaram,14.3864,77.7102,2023-01-01,3.4,,,,,
Andhra Pradesh,Sri Sathya Sai,Dharmavaram,Dharmavaram,14.3864,77.7102,2023-01-01,3.1,,,,,
Andhra Pradesh,Sri Sathya Sai,Gudibanda,Budipalli,13.9738,77.1648,2023-01-01,3.3,,,,,
Andhra Pradesh,Sri Sathya Sai,Gudibanda,Narasingarayana Roppam,14.00991,77.19881,2023-01-01,36.6,,,,,
Andhra Pradesh,Sri Sathya Sai,Gudibanda,Palaram,13.956,77.1083,2023-01-01,2.4,,,,,
Andhra Pradesh,Sri Sathya Sai,Kadiri,Alampur,14.194,78.1656,2023-01-01,1.1,,,,,
Andhra Pradesh,Sri Sathya Sai,Kadiri,Jaukula,14.1635,78.174,2023-01-01,5.1,,,,,
Andhra Pradesh,Sri Sathya Sai,Kadiri,Muthyalacherevu,14.1031,78.0998,2023-01-01,0.2,,,,,
Andhra Pradesh,Sri Sathya Sai,Lepakshi,Kanchisamudram,13.7752,77.6117,2023-01-01,2.2,,,,,
Andhra Pradesh,Sri Sathya Sai,Madakasira,Kothulagutta,13.92059,77.2191,2023-01-01,1.2,,,,,
Andhra Pradesh,Sri Sathya Sai,Madakasira,Madakasira,13.9411,77.276,2023-01-01,0.6,,,,,
Andhra Pradesh,Sri Sathya Sai,Mudigubba,Adivi Brahmanapalli,14.3549,78.0366,2023-01-01,0.1,,,,,
Andhra Pradesh,Sri Sathya Sai,Mudigubba,Kodavandlapalli,14.4677,77.9629,2023-01-01,3.0,,,,,
Andhra Pradesh,Sri Sathya Sai,Mudigubba,Malakavemula,14.27,78.0575,2023-01-01,1.1,,,,,
Andhra Pradesh,Sri Sathya Sai,Nallacheruvu,Malreddy Palli,13.9622,78.2231,2023-01-01,2.9,,,,,
Andhra Pradesh,Sri Sathya Sai,Nallacheruvu,Nalla Cheruvu,13.987,78.1878,2023-01-01,6.6,,,,,
Andhra Pradesh,Sri Sathya Sai,Nallamada,Charupalle,14.1953,78.0765,2023-01-01,7.1,,,,,
Andhra Pradesh,Sri Sathya Sai,Nambulapulikunta,Mekalacheruvu,14.04,78.31,2023-01-01,2.0,,,,,
Andhra Pradesh,Sri Sathya Sai,Nambulapulikunta,Tatimanigunta,14.1309,78.3903,2023-01-01,1.3,,,,,
Andhra Pradesh,Sri Sathya Sai,Obuladevarecheruvu,Ingaluru,14.04485,78.0403,2023-01-01,2.2,,,,,
Andhra Pradesh,Sri Sathya Sai,Obuladevarecheruvu,O.D.Cheruvu,14.0217,77.9952,2023-01-01,2.7,,,,,
Andhra Pradesh,Sri Sathya Sai,Obuladevarecheruvu,Tangdikunta,13.9425,77.9345,2023-01-01,1.9,,,,,
Andhra Pradesh,Sri Sathya Sai,Parigi,Paideti,13.9502,77.4573,2023-01-01,55.0,,,,,
Andhra Pradesh,Sri Sathya Sai,Penukonda,Asvattarayana Roppam,14.0269,77.2737,2023-01-01,0.3,,,,,
Andhra Pradesh,Sri Sathya Sai,Penukonda,Penukonda,14.0863,77.5976,2023-01-01,4.2,,,,,
Andhra Pradesh,Sri Sathya Sai,Penukonda,Timmapuram,14.1069,77.59915,2023-01-01,2.2,,,,,
Andhra Pradesh,Sri Sathya Sai,Puttaparthi,Kambalaparthi,14.1377,77.9099,2023-01-01,2.3,,,,,
Andhra Pradesh,Sri Sathya Sai,Rolla,Hottebetta,13.88139,77.15972,2023-01-01,2.1,,,,,
Andhra Pradesh,Sri Sathya Sai,Rolla,Kothapalam,13.8768,77.1462,2023-01-01,2.3,,,,,
Andhra Pradesh,Sri Sathya Sai,Rolla,Rolla,13.8414,77.1054,2023-01-01,1.8,,,,,
Andhra Pradesh,Sri Sathya Sai,Somandepalle,Gudipalli,13.9964,77.63051,2023-01-01,7.7,,,,,
Andhra Pradesh,Sri Sathya Sai,Talupula,Talapula,14.2421,78.25569,2023-01-01,4.8,,,,,
Andhra Pradesh,Sri Sathya Sai,Tanakal,Tanakallu,13.9171,78.196,2023-01-01,6.3,,,,,
Andhra Pradesh,Srikakulam,Amadalavalasa,Amudalavalasa,18.41665,83.90407,2023-01-01,3.6,18.2949,83.8938,23.98,77.1,0.14
Andhra Pradesh,Srikakulam,Gara,Gara,18.3298,84.05194,2023-01-01,5.2,18.2949,83.8938,23.98,77.1,0.14
Andhra Pradesh,Srikakulam,Gara,Kalingapatnam,18.3428,84.1225,2023-01-01,2.2,18.2949,83.8938,23.98,77.1,0.14
Andhra Pradesh,Srikakulam,Gara,Kalingapatnam,18.34011,84.12212,2023-01-01,2.2,18.2949,83.8938,23.98,77.1,0.14
Andhra Pradesh,Srikakulam,Gara,Sallapeta,18.29574,83.97742,2023-01-01,2.6,18.2949,83.8938,23.98,77.1,0.14
Andhra Pradesh,Srikakulam,Gara,Srikurmam,18.2724,84.00281,2023-01-01,2.7,18.2949,83.8938,23.98,77.1,0.14
Andhra Pradesh,Srikakulam,Hiramandalam,Gotta,18.69371,83.97065,2023-01-01,1.5,18.2949,83.8938,23.98,77.1,0.14
Andhra Pradesh,Srikakulam,Hiramandalam,Heeramandalam,18.67521,83.94893,2023-01-01,2.4,18.2949,83.8938,23.98,77.1,0.14
Andhra Pradesh,Srikakulam,Hiramandalam,Kolata,18.71025,84.00452,2023-01-01,7.4,18.2949,83.8938,23.98,77.1,0.14
Andhra Pradesh,Srikakulam,Hiramandalam,Pedda Sankhili,18.7042,83.9278,2023-01-01,4.1,18.2949,83.8938,23.98,77.1,0.14
Andhra Pradesh,Srikakulam,Ichapuram,Ichapuram,19.11838,84.68646,2023-01-01,2.0,18.2949,83.8938,23.98,77.1,0.14
Andhra Pradesh,Srikakulam,Jalumuru,Chalavaripeta,18.50932,84.06321,2023-01-01,2.8,18.2949,83.8938,23.98,77.1,0.14
Andhra Pradesh,Srikakulam,Kanchili,Kanchili,18.98366,84.58468,2023-01-01,5.2,18.2949,83.8938,23.98,77.1,0.14
Andhra Pradesh,Srikakulam,Kotabommili,Jarajangi,18.49895,84.13273,2023-01-01,1.0,18.2949,83.8938,23.98,77.1,0.14
Andhra Pradesh,Srikakulam,Kotabommili,Tharli Bodapadu,18.55868,84.18418,2023-01-01,3.2,18.2949,83.8938,23.98,77.1,0.14
Andhra Pradesh,Srikakulam,Laveru,Bejjipuram,18.23309,83.74802,2023-01-01,1.2,18.2949,83.8938,23.98,77.1,0.14
Andhra Pradesh,Srikakulam,Mandasa,Haripuram,18.84549,84.50551,2023-01-01,3.6,18.2949,83.8938,23.98,77.1,0.14
Andhra Pradesh,Srikakulam,Meliaputti,Jadupalli,18.7584,84.23316,2023-01-01,2.4,18.2949,83.8938,23.98,77.1,0.14
Andhra Pradesh,Srikakulam,Meliaputti,Meliaputti,18.77424,84.17358,2023-01-01,2.4,18.2949,83.8938,23.98,77.1,0.14
Andhra Pradesh,Srikakulam,Meliaputti,Pedda Padmapuram,18.75953,84.16202,2023-01-01,2.8,18.2949,83.8938,23.98,77.1,0.14
Andhra Pradesh,Srikakulam,Meliaputti,Sundarada,18.73943,84.13496,2023-01-01,4.1,18.2949,83.8938,23.98,77.1,0.14
Andhra Pradesh,Srikakulam,Nandigam,Nandigam,18.65634,84.29862,2023-01-01,1.7,18.2949,83.8938,23.98,77.1,0.14
Andhra Pradesh,Srikakulam,Nandigam,Pata Tekkali,18.63045,84.36011,2023-01-01,1.9,18.2949,83.8938,23.98,77.1,0.14
Andhra Pradesh,Srikakulam,Palasa,Palasa,18.75704,84.41747,2023-01-01,0.9,18.2949,83.8938,23.98,77.1,0.14
Andhra Pradesh,Srikakulam,Palasa,Tekkalipatnam,18.73941,84.3319,2023-01-01,3.2,18.2949,83.8938,23.98,77.1,0.14
Andhra Pradesh,Srikakulam,Pathapatnam,Patapatnam,18.75142,84.09409,2023-01-01,3.9,18.2949,83.8938,23.98,77.1,0.14
Andhra Pradesh,Srikakulam,Ponduru,Ponduru,18.35559,83.75528,2023-01-01,2.1,18.2949,83.8938,23.98,77.1,0.14
Andhra Pradesh,Srikakulam,Ranastalam,Phidi Bheemavaram,18.14667,83.62835,2023-01-01,1.5,18.2949,83.8938,23.98,77.1,0.14
Andhra Pradesh,Srikakulam,Santhabommali,Naupada,18.56505,84.2998,2023-01-01,2.2,18.2949,83.8938,23.98,77.1,0.14
Andhra Pradesh,Srikakulam,Saravakota,Aldu,18.5781,84.05364,2023-01-01,2.5,18.2949,83.8938,23.98,77.1,0.14
Andhra Pradesh,Srikakulam,Sompeta,Baruva,18.88136,84.59152,2023-01-01,2.3,18.2949,83.8938,23.98,77.1,0.14
Andhra Pradesh,Srikakulam,Sompeta,Korlam,18.9059,84.55421,2023-01-01,2.2,18.2949,83.8938,23.98,77.1,0.14
Andhra Pradesh,Srikakulam,Sompeta,Mamidipalli,18.86268,84.54777,2023-01-01,4.0,18.2949,83.8938,23.98,77.1,0.14
Andhra Pradesh,Srikakulam,Sompeta,Sompet,18.9391,84.58572,2023-01-01,3.4,18.2949,83.8938,23.98,77.1,0.14
Andhra Pradesh,Srikakulam,Srikakulam,Arasavalli,18.28904,83.91594,2023-01-01,1.6,18.2949,83.8938,23.98,77.1,0.14
Andhra Pradesh,Srikakulam,Srikakulam,Patasrikakulam,18.27269,83.90515,2023-01-01,6.2,18.2949,83.8938,23.98,77.1,0.14
Andhra Pradesh,Srikakulam,Srikakulam,Peddapadu,18.31518,83.92726,2023-01-01,4.0,18.2949,83.8938,23.98,77.1,0.14
Andhra Pradesh,Srikakulam,Srikakulam,Ragolu,18.34453,83.89346,2023-01-01,3.0,18.2949,83.8938,23.98,77.1,0.14
Andhra Pradesh,Srikakulam,Tekkali,Tekkali,18.60218,84.23796,2023-01-01,2.5,18.2949,83.8938,23.98,77.1,0.14
Andhra Pradesh,Srikakulam,Vajrapukotturu,Bendigetu,18.71807,84.3883,2023-01-01,3.1,18.2949,83.8938,23.98,77.1,0.14
Andhra Pradesh,Srikakulam,Vajrapukotturu,Veerabhadrapuram,18.7303,84.36406,2023-01-01,2.4,18.2949,83.8938,23.98,77.1,0.14
Andhra Pradesh,Tirupati,Balayapalle,Melchuru,13.90801,79.73149,2023-01-01,0.2,,,,,
Andhra Pradesh,Tirupati,Buchinadidu Khandriga,Nilavaai,13.63705,79.90084,2023-01-01,1.5,,,,,
Andhra Pradesh,Tirupati,Chandragiri,Mungilipattu,13.56087,79.24931,2023-01-01,3.3,,,,,
Andhra Pradesh,Tirupati,Chillakur,Budankm,14.07216,79.891,2023-01-01,3.5,,,,,
Andhra Pradesh,Tirupati,Chillakur,Ramareddypalem,14.14043,80.0066,2023-01-01,1.4,,,,,
Andhra Pradesh,Tirupati,Chillakur,Tikkavaram,14.12114,79.95847,2023-01-01,2.7,,,,,
Andhra Pradesh,Tirupati,Chittamur,Aravapalem,13.93052,80.03844,2023-01-01,0.8,,,,,
Andhra Pradesh,Tirupati,Gudur,Gollapalle,14.11018,79.72702,2023-01-01,4.1,,,,,
Andhra Pradesh,Tirupati,Kota,Chittedu,14.05429,79.98029,2023-01-01,1.4,,,,,
Andhra Pradesh,Tirupati,Kota,Kesavaram,14.06234,79.96086,2023-01-01,1.9,,,,,
Andhra Pradesh,Tirupati,Kota,Vidyanagar,14.03057,80.03122,2023-01-01,1.4,,,,,
Andhra Pradesh,Tirupati,Nagalapuram,Baita Kodiam Bedu,13.36953,79.81433,2023-01-01,4.3,,,,,
Andhra Pradesh,Tirupati,Nagalapuram,Naagalapuram,13.39547,79.77703,2023-01-01,1.7,,,,,
Andhra Pradesh,Tirupati,Nagalapuram,Suritipalli,13.3354,79.87299,2023-01-01,0.3,,,,,
Andhra Pradesh,Tirupati,Naidupeta,Brahmana Puduru Agraharam 13.89905,,79.92676,2023-01-01,1.3,,,,,
Andhra Pradesh,Tirupati,Pakala,Damalcheruvu,13.47804,79.04815,2023-01-01,2.0,,,,,
Andhra Pradesh,Tirupati,Puttur,Puttur,13.44472,79.55105,2023-01-01,0.1,,,,,
Andhra Pradesh,Tirupati,Ramachandrapuram,Balijepalli,13.52126,79.38072,2023-01-01,2.0,,,,,
Andhra Pradesh,Tirupati,Renigunta,Guthuvaripalli,13.6514,79.5425,2023-01-01,2.7,,,,,
Andhra Pradesh,Tirupati,Satyavedu,Ammasi Reddy Kandriga,13.45656,79.96375,2023-01-01,2.3,,,,,
Andhra Pradesh,Tirupati,Satyavedu,Madam Bedu,13.41146,79.92859,2023-01-01,7.0,,,,,
Andhra Pradesh,Tirupati,Srikalahasti,Sri Kalahasti,13.75236,79.70245,2023-01-01,2.0,,,,,
Andhra Pradesh,Tirupati,Sullurpeta,Atkanitipa,13.72248,80.12406,2023-01-01,0.1,,,,,
Andhra Pradesh,Tirupati,Tirupati (Rural),Cherlapalle,13.60598,79.36149,2023-01-01,2.6,,,,,
Andhra Pradesh,Tirupati,Tirupati (Rural),Krishnapuram,13.80003,79.95281,2023-01-01,3.3,,,,,
Andhra Pradesh,Tirupati,Tirupati (Rural),Thurupupalli,13.62377,78.69937,2023-01-01,1.6,,,,,
Andhra Pradesh,Tirupati,Tirupati (Urban),Tirumala,13.68484,79.34463,2023-01-01,2.8,,,,,
Andhra Pradesh,Tirupati,Tirupati (Urban),Tirupati(U),13.64248,79.42151,2023-01-01,3.9,,,,,
Andhra Pradesh,Tirupati,Vakadu,Durgaraja-Patnam,13.97861,80.15644,2023-01-01,0.2,,,,,
Andhra Pradesh,Tirupati,Varadaiahpalem,Chinna Panduru,13.54444,79.94166,2023-01-01,0.6,,,,,
Andhra Pradesh,Tirupati,Venkatagiri,Gopalpuram,14.02157,79.62605,2023-01-01,1.3,,,,,
Andhra Pradesh,Tirupati,Venkatagiri,Venkatagiri,13.94989,79.58621,2023-01-01,5.3,,,,,
Andhra Pradesh,Tirupati,Yerpedu,Erpedu,13.69716,79.59404,2023-01-01,0.8,,,,,
Andhra Pradesh,Tirupati,Yerpedu,Pallem,13.82023,79.58479,2023-01-01,1.4,,,,,
Andhra Pradesh,Visakhapatnam,Bheemunipatnam,Bhimunipatnam,17.89302,83.45341,2023-01-01,1.5,17.6868,83.2185,25.19,77.33,0.12
Andhra Pradesh,Visakhapatnam,Bheemunipatnam,Bhimunipatnam,17.88763,83.45207,2023-01-01,5.1,17.6868,83.2185,25.19,77.33,0.12
Andhra Pradesh,Visakhapatnam,Bheemunipatnam,Maharajupeta,17.9507,83.4181,2023-01-01,4.7,17.6868,83.2185,25.19,77.33,0.12
Andhra Pradesh,Visakhapatnam,Pendurthi,Bandavaripalem,17.83242,83.22914,2023-01-01,2.6,17.6868,83.2185,25.19,77.33,0.12
Andhra Pradesh,Visakhapatnam,Pendurthi,Gurrampalem,17.84168,83.21524,2023-01-01,2.0,17.6868,83.2185,25.19,77.33,0.12
Andhra Pradesh,Visakhapatnam,Pendurthi,Pendurti,17.82347,83.20844,2023-01-01,2.5,17.6868,83.2185,25.19,77.33,0.12
Andhra Pradesh,Visakhapatnam,Pendurthi,Purshotta Puram,17.50287,82.79409,2023-01-01,1.7,17.6868,83.2185,25.19,77.33,0.12
Andhra Pradesh,Visakhapatnam,Pendurthi,Vepagunta,17.77592,83.21678,2023-01-01,3.0,17.6868,83.2185,25.19,77.33,0.12
Andhra Pradesh,Visakhapatnam,Visakhapatnam (U),Kancherapalem,17.73902,83.26686,2023-01-01,5.5,17.6868,83.2185,25.19,77.33,0.12
Andhra Pradesh,Visakhapatnam,Visakhapatnam (U),Lawson'S Bay,17.73279,83.34172,2023-01-01,2.8,17.6868,83.2185,25.19,77.33,0.12
Andhra Pradesh,Visakhapatnam,Visakhapatnam (U),Pithapuram,17.71698,83.32689,2023-01-01,5.7,17.6868,83.2185,25.19,77.33,0.12
Andhra Pradesh,Visakhapatnam,Visakhapatnam(Rural),Kotaveedhi,17.6901,83.2919,2023-01-01,5.2,17.6868,83.2185,25.19,77.33,0.12
Andhra Pradesh,Visakhapatnam,Visakhapatnam(Rural),Peddagadili,17.7577,83.3258,2023-01-01,5.4,17.6868,83.2185,25.19,77.33,0.12
Andhra Pradesh,Visakhapatnam,Visakhapatnam(Rural),Potinamallayapalem,17.80292,83.3542,2023-01-01,14.2,17.6868,83.2185,25.19,77.33,0.12
Andhra Pradesh,Visakhapatnam,Visakhapatnam(Rural),Rishikonda,17.7801,83.38513,2023-01-01,2.0,17.6868,83.2185,25.19,77.33,0.12
Andhra Pradesh,Visakhapatnam,Visakhapatnam(Rural),Visalakshinagar,17.7549,83.3469,2023-01-01,1.9,17.6868,83.2185,25.19,77.33,0.12
Andhra Pradesh,Vizianagaram,Bobbili,Bobbili,18.57116,83.34872,2023-01-01,2.3,18.1067,83.3956,23.35,79.39,0.07
Andhra Pradesh,Vizianagaram,Bobbili,Kokadavalasa,18.60908,83.42365,2023-01-01,2.8,18.1067,83.3956,23.35,79.39,0.07
Andhra Pradesh,Vizianagaram,Bondapalle,Bondapalli,18.2412,83.3463,2023-01-01,2.1,18.1067,83.3956,23.35,79.39,0.07
Andhra Pradesh,Vizianagaram,Bondapalle,Gotlam,18.1636,83.3779,2023-01-01,3.2,18.1067,83.3956,23.35,79.39,0.07
Andhra Pradesh,Vizianagaram,Dattirajeru,Dattirajeru,18.37184,83.40044,2023-01-01,2.3,18.1067,83.3956,23.35,79.39,0.07
Andhra Pradesh,Vizianagaram,Dattirajeru,Maradam,18.40389,83.33682,2023-01-01,2.2,18.1067,83.3956,23.35,79.39,0.07
Andhra Pradesh,Vizianagaram,Denkada,Denkada,18.0753,83.4789,2023-01-01,3.9,18.1067,83.3956,23.35,79.39,0.07
Andhra Pradesh,Vizianagaram,Denkada,Natavalasa,18.0753,83.4789,2023-01-01,5.4,18.1067,83.3956,23.35,79.39,0.07
Andhra Pradesh,Vizianagaram,Gajapathinagaram,Gajarayanivalasa,18.4873,83.3283,2023-01-01,3.6,18.1067,83.3956,23.35,79.39,0.07
Andhra Pradesh,Vizianagaram,Gantyada,Konda Thamarapalli,18.16225,83.2562,2023-01-01,1.8,18.1067,83.3956,23.35,79.39,0.07
Andhra Pradesh,Vizianagaram,Gantyada,Narava,18.06275,83.5254,2023-01-01,1.5,18.1067,83.3956,23.35,79.39,0.07
Andhra Pradesh,Vizianagaram,Garividi,Garividi,18.28022,83.52826,2023-01-01,4.3,18.1067,83.3956,23.35,79.39,0.07
Andhra Pradesh,Vizianagaram,Garividi,Kapusambam,18.34491,83.58895,2023-01-01,1.7,18.1067,83.3956,23.35,79.39,0.07
Andhra Pradesh,Vizianagaram,Gurla,Kondagandredu,18.2845,83.4531,2023-01-01,16.5,18.1067,83.3956,23.35,79.39,0.07
Andhra Pradesh,Vizianagaram,Jami,Almanda Village,17.99468,83.24301,2023-01-01,1.7,18.1067,83.3956,23.35,79.39,0.07
Andhra Pradesh,Vizianagaram,Jami,Kumaram,18.04625,83.31885,2023-01-01,4.6,18.1067,83.3956,23.35,79.39,0.07
Andhra Pradesh,Vizianagaram,Kothavalasa,Chinnaravupalli,17.96707,83.22178,2023-01-01,1.3,18.1067,83.3956,23.35,79.39,0.07
Andhra Pradesh,Vizianagaram,Kothavalasa,Kothavalasa,17.8967,83.1856,2023-01-01,1.8,18.1067,83.3956,23.35,79.39,0.07
Andhra Pradesh,Vizianagaram,Lakkavarapukota,Lakkavarapu Kota,17.9673,83.17547,2023-01-01,2.0,18.1067,83.3956,23.35,79.39,0.07
Andhra Pradesh,Vizianagaram,Lakkavarapukota,Mallavedu,18.0254,83.15206,2023-01-01,2.6,18.1067,83.3956,23.35,79.39,0.07
Andhra Pradesh,Vizianagaram,Merakamudidam,Garbham,18.369,83.4535,2023-01-01,5.3,18.1067,83.3956,23.35,79.39,0.07
Andhra Pradesh,Vizianagaram,Pusapatirega,Kanimetta,18.12625,83.58858,2023-01-01,3.1,18.1067,83.3956,23.35,79.39,0.07
Andhra Pradesh,Vizianagaram,Rajam,Rajam,18.44599,83.65337,2023-01-01,1.8,18.1067,83.3956,23.35,79.39,0.07
Andhra Pradesh,Vizianagaram,Ramabhadrapuram,Tarapuram,18.50233,83.25378,2023-01-01,2.7,18.1067,83.3956,23.35,79.39,0.07
Andhra Pradesh,Vizianagaram,Srungavarapukota,Gowripuram,18.155,83.1318,2023-01-01,1.6,18.1067,83.3956,23.35,79.39,0.07
Andhra Pradesh,Vizianagaram,Srungavarapukota,S.Kota,18.11594,83.1378,2023-01-01,1.2,18.1067,83.3956,23.35,79.39,0.07
Andhra Pradesh,Vizianagaram,Srungavarapukota,Tatipudi,18.1695,83.1926,2023-01-01,4.2,18.1067,83.3956,23.35,79.39,0.07
Andhra Pradesh,Vizianagaram,Therlam,Agraharam,18.46213,83.49821,2023-01-01,2.4,18.1067,83.3956,23.35,79.39,0.07
Andhra Pradesh,Vizianagaram,Therlam,Kollivalasa,18.52212,83.52698,2023-01-01,0.9,18.1067,83.3956,23.35,79.39,0.07
Andhra Pradesh,Vizianagaram,Therlam,Locherala,18.48406,83.53432,2023-01-01,2.3,18.1067,83.3956,23.35,79.39,0.07
Andhra Pradesh,Vizianagaram,Vizianagaram,Vizianagaram,18.10388,83.39395,2023-01-01,4.4,18.1067,83.3956,23.35,79.39,0.07
Andhra Pradesh,West Godavari,Akividu,Akiveedu,16.586,81.3882,2023-01-01,5.9,16.7107,81.0952,25.73,75.86,0.05
Andhra Pradesh,West Godavari,Akividu,Akiveedu,16.583,81.3889,2023-01-01,1.2,16.7107,81.0952,25.73,75.86,0.05
Andhra Pradesh,West Godavari,Attili,Attili,16.686,81.6052,2023-01-01,2.6,16.7107,81.0952,25.73,75.86,0.05
Andhra Pradesh,West Godavari,Bhimavaram,Narsimhapuram,16.5582,81.5017,2023-01-01,1.1,16.7107,81.0952,25.73,75.86,0.05
Andhra Pradesh,West Godavari,Iragavaram,Gowrabalu,16.6983,81.6309,2023-01-01,1.8,16.7107,81.0952,25.73,75.86,0.05
Andhra Pradesh,West Godavari,Iragavaram,Iragavaram,16.6906,81.7062,2023-01-01,3.9,16.7107,81.0952,25.73,75.86,0.05
Andhra Pradesh,West Godavari,Mogalthur,Kummarapurugu,16.3677,81.6038,2023-01-01,0.6,16.7107,81.0952,25.73,75.86,0.05
Andhra Pradesh,West Godavari,Mogalthur,Mogalturu,16.4139,81.614,2023-01-01,1.2,16.7107,81.0952,25.73,75.86,0.05
Andhra Pradesh,West Godavari,Mogalthur,Perupalem,16.378,81.5837,2023-01-01,1.6,16.7107,81.0952,25.73,75.86,0.05
Andhra Pradesh,West Godavari,Narsapur,Narsapuram,16.4323,81.6933,2023-01-01,1.0,16.7107,81.0952,25.73,75.86,0.05
Andhra Pradesh,West Godavari,Palacole,Palakolu,16.5095,81.7194,2023-01-01,0.2,16.7107,81.0952,25.73,75.86,0.05
Andhra Pradesh,West Godavari,Palakoderu,Garaga Parru,16.6072,81.5299,2023-01-01,1.7,16.7107,81.0952,25.73,75.86,0.05
Andhra Pradesh,West Godavari,Palakoderu,Vissakoduru,16.5505,81.5713,2023-01-01,1.2,16.7107,81.0952,25.73,75.86,0.05
Andhra Pradesh,West Godavari,Pentapadu,Pentapadu,16.7858,81.5265,2023-01-01,1.1,16.7107,81.0952,25.73,75.86,0.05
Andhra Pradesh,West Godavari,Penumantra,Penumantra,16.6457,81.6488,2023-01-01,2.7,16.7107,81.0952,25.73,75.86,0.05
Andhra Pradesh,West Godavari,Penumantra,Polamuru,16.6162,81.6409,2023-01-01,1.4,16.7107,81.0952,25.73,75.86,0.05
Andhra Pradesh,West Godavari,Undi,Cherukuwada,16.586,81.4166,2023-01-01,2.0,16.7107,81.0952,25.73,75.86,0.05
Andhra Pradesh,West Godavari,Undi,Kolamuru,16.6322,81.4673,2023-01-01,1.2,16.7107,81.0952,25.73,75.86,0.05
Andhra Pradesh,West Godavari,Undi,Undi,16.5862,81.4613,2023-01-01,1.1,16.7107,81.0952,25.73,75.86,0.05
Andhra Pradesh,West Godavari,Veeravasaram,Veeravasaram,16.5417,81.606,2023-01-01,1.8,16.7107,81.0952,25.73,75.86,0.05
Andhra Pradesh,Y.S.R.,B.Kodur,Sagileru,14.95072,78.95489,2023-01-01,10.0,,,,,
Andhra Pradesh,Y.S.R.,Brahmamgarimatham,Chowdariwaripalli,14.83201,78.95212,2023-01-01,1.8,,,,,
Andhra Pradesh,Y.S.R.,Brahmamgarimatham,Chowkpalli,14.89482,78.92397,2023-01-01,2.6,,,,,
Andhra Pradesh,Y.S.R.,Brahmamgarimatham,Mallepalle,14.8889,78.88074,2023-01-01,4.1,,,,,
Andhra Pradesh,Y.S.R.,Brahmamgarimatham,Vbmatham,14.82087,78.87815,2023-01-01,2.1,,,,,
Andhra Pradesh,Y.S.R.,Chapadu,Alladupalli,14.71909,78.67675,2023-01-01,4.9,,,,,
Andhra Pradesh,Y.S.R.,Chapadu,Alludupally,14.71928,78.67705,2023-01-01,2.3,,,,,
Andhra Pradesh,Y.S.R.,Chapadu,Vishwanathpuram,14.72529,78.7075,2023-01-01,2.5,,,,,
Andhra Pradesh,Y.S.R.,Duvvur,Kanagudur,14.91114,78.62117,2023-01-01,1.4,,,,,
Andhra Pradesh,Y.S.R.,Jammalamadugu,Jammalamadugu,14.85227,78.38792,2023-01-01,4.1,,,,,
Andhra Pradesh,Y.S.R.,Kamalapuram,Chadipiralla,14.58752,78.63683,2023-01-01,0.9,,,,,
Andhra Pradesh,Y.S.R.,Khajipet,Pathur,14.64722,78.7751,2023-01-01,1.9,,,,,
Andhra Pradesh,Y.S.R.,Kondapuram,Donkapalli Satram,14.73152,78.14634,2023-01-01,2.4,,,,,
Andhra Pradesh,Y.S.R.,Lingala,Diguva Lingala,14.49714,78.11578,2023-01-01,5.8,,,,,
Andhra Pradesh,Y.S.R.,Mylavaram,Talamanchi Patnam,14.94489,78.3118,2023-01-01,1.0,,,,,
Andhra Pradesh,Y.S.R.,Pulivendla,E.Kothapally,14.39444,78.18271,2023-01-01,2.1,,,,,
Andhra Pradesh,Y.S.R.,Pulivendla,Narapareddi Garipalli,14.40013,78.16854,2023-01-01,8.9,,,,,
Andhra Pradesh,Y.S.R.,Rajupalem,Pullareddy Pet,14.83447,78.66407,2023-01-01,4.3,,,,,
Andhra Pradesh,Y.S.R.,Simhadripuram,Sunkesula,14.65432,78.21241,2023-01-01,1.2,,,,,
Andhra Pradesh,Y.S.R.,Veerapanayani Palle,Kommaddi,14.54614,78.44193,2023-01-01,3.3,,,,,
Andhra Pradesh,Y.S.R.,Veerapanayani Palle,Kommadi,14.54602,78.4415,2023-01-01,3.3,,,,,
Andhra Pradesh,Y.S.R.,Veerapanayani Palle,N.Pallagiri,14.45713,78.44239,2023-01-01,4.4,,,,,
Andhra Pradesh,Y.S.R.,Vempalle,Idupulapaya,14.33435,78.53285,2023-01-01,4.5,,,,,
Andhra Pradesh,Y.S.R.,Vempalle,Tallapally,14.3733,78.38804,2023-01-01,2.7,,,,,
Andhra Pradesh,Y.S.R.,Vempalle,Vempally,14.37754,78.45954,2023-01-01,1.6,,,,,
Andhra Pradesh,Y.S.R.,Yerraguntla,Chilamakuru,14.64634,78.46817,2023-01-01,5.0,,,,,
Andhra Pradesh,Alluri Sitharama Raju,Addateegala,Addateegala,17.4633,82.0271,2022-01-01,8.6,,,,,
Andhra Pradesh,Alluri Sitharama Raju,Addateegala,Mallavaram Mammilu,17.5032,82.0124,2022-01-01,3.8,,,,,
Andhra Pradesh,Alluri Sitharama Raju,Addateegala,Veerbhadrapuram,17.4379,82.074,2022-01-01,2.5,,,,,
Andhra Pradesh,Alluri Sitharama Raju,Ananthagiri,Anantagiri,18.2388,83.0011,2022-01-01,5.3,,,,,
Andhra Pradesh,Alluri Sitharama Raju,Ananthagiri,Bangarammapeta,18.216,83.1019,2022-01-01,4.9,,,,,
Andhra Pradesh,Alluri Sitharama Raju,Ananthagiri,Kottur,18.2074,83.0743,2022-01-01,4.1,,,,,
Andhra Pradesh,Alluri Sitharama Raju,Araku Valley,Araku,18.3207,82.8814,2022-01-01,9.8,,,,,
Andhra Pradesh,Alluri Sitharama Raju,Araku Valley,Sunkarametta,18.2785,82.96694,2022-01-01,10.1,,,,,
Andhra Pradesh,Alluri Sitharama Raju,Chintapalle,Lambasingi,17.8071,82.4959,2022-01-01,1.9,,,,,
Andhra Pradesh,Alluri Sitharama Raju,Chintapalle,Lotugadda,17.8554,82.4361,2022-01-01,1.7,,,,,
Andhra Pradesh,Alluri Sitharama Raju,Chintoor,Chintoor,17.756,81.387,2022-01-01,5.9,,,,,
Andhra Pradesh,Alluri Sitharama Raju,Chintoor,Chirevalli,17.59458,81.0856,2022-01-01,3.0,,,,,
Andhra Pradesh,Alluri Sitharama Raju,Chintoor,Edugarallapalli,17.74267,81.17827,2022-01-01,4.7,,,,,
Andhra Pradesh,Alluri Sitharama Raju,Chintoor,Mothugudem,17.82787,81.63193,2022-01-01,1.6,,,,,
Andhra Pradesh,Alluri Sitharama Raju,Chintoor,Sarivela,17.78168,81.28287,2022-01-01,3.0,,,,,
Andhra Pradesh,Alluri Sitharama Raju,Devipatnam,Chinna Ramanayapet,17.3235,81.6974,2022-01-01,2.6,,,,,
Andhra Pradesh,Alluri Sitharama Raju,Dumbriguda,Dimriguda,18.2885,82.7921,2022-01-01,9.4,,,,,
Andhra Pradesh,Alluri Sitharama Raju,Gangavaram,Gangavaram,17.4262,81.9133,2022-01-01,3.3,,,,,
Andhra Pradesh,Alluri Sitharama Raju,Gangavaram,Jaderu,17.4805,81.9523,2022-01-01,2.0,,,,,
Andhra Pradesh,Alluri Sitharama Raju,Gudem Kotha Veedhi,Gudem,17.863,82.1957,2022-01-01,3.6,,,,,
Andhra Pradesh,Alluri Sitharama Raju,Hukumpeta,Kontela,18.1386,82.6878,2022-01-01,5.3,,,,,
Andhra Pradesh,Alluri Sitharama Raju,Hukumpeta,Rangasheela,18.2106,82.7788,2022-01-01,1.8,,,,,
Andhra Pradesh,Alluri Sitharama Raju,Koyyuru,Koyyuru,17.6599,82.2194,2022-01-01,2.6,,,,,
Andhra Pradesh,Alluri Sitharama Raju,Maredumilli,Maredumilli,17.5961,81.71549,2022-01-01,5.1,,,,,
Andhra Pradesh,Alluri Sitharama Raju,Nellipaka,Lakshmipuram,17.71967,81.04836,2022-01-01,2.8,,,,,
Andhra Pradesh,Alluri Sitharama Raju,Nellipaka,Lakshmipuram,17.71967,81.04836,2022-01-01,5.5,,,,,
Andhra Pradesh,Alluri Sitharama Raju,Paderu,Garikabanda,17.9453,82.7566,2022-01-01,2.9,,,,,
Andhra Pradesh,Alluri Sitharama Raju,Paderu,Minimuluru,18.0369,82.6999,2022-01-01,7.3,,,,,
Andhra Pradesh,Alluri Sitharama Raju,Paderu,Paderu,18.0795,82.6735,2022-01-01,12.8,,,,,
Andhra Pradesh,Alluri Sitharama Raju,Paderu,Vontlamamidi,17.9746,82.7334,2022-01-01,2.9,,,,,
Andhra Pradesh,Alluri Sitharama Raju,Peda Bayalu,Gamparai,18.1825,82.6374,2022-01-01,3.8,,,,,
Andhra Pradesh,Alluri Sitharama Raju,Rajavommangi,Badadanapalli,17.5841,82.2685,2022-01-01,3.2,,,,,
Andhra Pradesh,Alluri Sitharama Raju,Rajavommangi,Jaddangi,17.4855,82.1582,2022-01-01,4.8,,,,,
Andhra Pradesh,Alluri Sitharama Raju,Rajavommangi,Lagarai,17.5735,82.1922,2022-01-01,3.5,,,,,
Andhra Pradesh,Alluri Sitharama Raju,Rajavommangi,Rajavommangi,17.5408,82.2229,2022-01-01,2.5,,,,,
Andhra Pradesh,Alluri Sitharama Raju,Rampachodavaram,Chelakaveedhi,17.4613,81.671,2022-01-01,4.4,,,,,
Andhra Pradesh,Alluri Sitharama Raju,Rampachodavaram,Folkspeta,17.3139,81.8398,2022-01-01,3.3,,,,,
Andhra Pradesh,Alluri Sitharama Raju,Rampachodavaram,Rampachodavaram,17.4402,81.7805,2022-01-01,5.5,,,,,
Andhra Pradesh,Alluri Sitharama Raju,Rampachodavaram,Sitapalli,17.3762,81.7915,2022-01-01,3.2,,,,,
Andhra Pradesh,Alluri Sitharama Raju,Y. Ramavaram,Chaviti Tibalu,17.6183,81.9854,2022-01-01,1.8,,,,,
Andhra Pradesh,Alluri Sitharama Raju,Y. Ramavaram,P. Yerragonda,17.6583,81.9492,2022-01-01,2.0,,,,,
Andhra Pradesh,Anakapalli,Achutapuram,Haripalem,17.60917,82.97784,2022-01-01,7.2,,,,,
Andhra Pradesh,Anakapalli,Anakapalle,Anakapalli,17.68095,82.9817,2022-01-01,2.9,,,,,
Andhra Pradesh,Anakapalli,Butchayyapeta,Bangarumitta,17.83871,82.86782,2022-01-01,3.4,,,,,
Andhra Pradesh,Anakapalli,Butchayyapeta,L.Singavaram,17.81936,82.83775,2022-01-01,2.7,,,,,
Andhra Pradesh,Anakapalli,Golugonda,Mallampet,17.67405,82.44868,2022-01-01,2.3,,,,,
Andhra Pradesh,Anakapalli,Golugonda,Naganna Dorapalem,17.67734,82.4944,2022-01-01,4.4,,,,,
Andhra Pradesh,Anakapalli,Golugonda,Pata K.D.Peta,17.6723,82.3619,2022-01-01,2.1,,,,,
Andhra Pradesh,Anakapalli,K.Kotapadu,K.Kotapadu,17.8841,83.047,2022-01-01,3.7,,,,,
Andhra Pradesh,Anakapalli,Kasimkota,Tallapalem,17.63373,82.89215,2022-01-01,1.8,,,,,
Andhra Pradesh,Anakapalli,Kotauratla,Kotauratla,17.56487,82.68665,2022-01-01,3.8,,,,,
Andhra Pradesh,Anakapalli,Kotauratla,Yendapalli,17.61124,82.64991,2022-01-01,2.4,,,,,
Andhra Pradesh,Anakapalli,Narsipatnam,Narsipatnam,17.67606,82.59564,2022-01-01,2.3,,,,,
Andhra Pradesh,Anakapalli,Rambilli,Pudimadaka,17.4928,83.00236,2022-01-01,3.7,,,,,
Andhra Pradesh,Anakapalli,Ravikamatham,Kothakota,17.7562,82.7051,2022-01-01,2.2,,,,,
Andhra Pradesh,Anakapalli,Ravikamatham,Medivoda,17.78451,82.77913,2022-01-01,4.2,,,,,
Andhra Pradesh,Anakapalli,Rolugunta,Rolugunta,17.7129,82.6668,2022-01-01,3.2,,,,,
Andhra Pradesh,Anakapalli,S.Rayavaram,Addaroddu,17.43203,82.74759,2022-01-01,2.3,,,,,
Andhra Pradesh,Anakapalli,S.Rayavaram,Gurrajupeta,17.40054,82.76798,2022-01-01,3.2,,,,,
Andhra Pradesh,Anakapalli,S.Rayavaram,Rayavaram,17.45476,82.80249,2022-01-01,2.5,,,,,
Andhra Pradesh,Anakapalli,S.Rayavaram,Revupolavaram,17.39716,82.81776,2022-01-01,3.5,,,,,
Andhra Pradesh,Anakapalli,Yelamanchili,Yelamanchili,17.54635,82.85566,2022-01-01,5.0,,,,,
Andhra Pradesh,Ananthapuramu,Anantapur,Kamarupalli,14.6617,77.49913,2022-01-01,4.5,,,,,
Andhra Pradesh,Ananthapuramu,Atmakur,Waddipalli,14.67769,77.4562,2022-01-01,3.4,,,,,
Andhra Pradesh,Ananthapuramu,Bukkarayasamudram,Korrapadu,14.75411,77.71196,2022-01-01,1.7,,,,,
Andhra Pradesh,Ananthapuramu,Gooty,Gooty,15.1179,77.64,2022-01-01,3.7,,,,,
Andhra Pradesh,Ananthapuramu,Guntakal,Guntakal,15.15571,77.3837,2022-01-01,1.9,,,,,
Andhra Pradesh,Ananthapuramu,Kalyandrug,Kalyandurg,14.5483,77.1071,2022-01-01,4.4,,,,,
Andhra Pradesh,Ananthapuramu,Kudair,Kodadarakunta,14.7342,77.3961,2022-01-01,16.0,,,,,
Andhra Pradesh,Ananthapuramu,Rayadurg,Rayadurg,14.7054,76.8484,2022-01-01,1.7,,,,,
Andhra Pradesh,Ananthapuramu,Settur,Chinnampalli,14.47016,77.06235,2022-01-01,8.9,,,,,
Andhra Pradesh,Ananthapuramu,Singanamala,Sivapuram,14.7788,77.7269,2022-01-01,8.4,,,,,
Andhra Pradesh,Ananthapuramu,Uravakonda,Amidala,14.851,77.2501,2022-01-01,2.4,,,,,
Andhra Pradesh,Ananthapuramu,Vajrakarur,Vajrakarur,15.03043,77.38311,2022-01-01,4.3,,,,,
Andhra Pradesh,Ananthapuramu,Yadiki,Yadiki,15.0482,77.8678,2022-01-01,7.5,,,,,
Andhra Pradesh,Annamayya,B.Kothakota,Kandlamadugu,13.66631,78.41837,2022-01-01,2.7,,,,,
Andhra Pradesh,Annamayya,Chinnamandem,Chinnamandyam,13.94948,78.68845,2022-01-01,3.5,,,,,
Andhra Pradesh,Annamayya,Galiveedu,Galiveedu,14.02485,78.50271,2022-01-01,1.7,,,,,
Andhra Pradesh,Annamayya,Kalakada,Kalakoda,13.82753,78.78775,2022-01-01,4.0,,,,,
Andhra Pradesh,Annamayya,Kodur,Kodur,13.95871,79.35315,2022-01-01,5.8,,,,,
Andhra Pradesh,Annamayya,Lakkireddipalle,Lakkireddipalli,14.1849,78.70151,2022-01-01,3.5,,,,,
Andhra Pradesh,Annamayya,Madanapalle,Arogyavaram,13.59343,78.52698,2022-01-01,2.1,,,,,
Andhra Pradesh,Annamayya,Madanapalle,Basani Khonda,13.55127,78.52983,2022-01-01,2.5,,,,,
Andhra Pradesh,Annamayya,Nimmanapalle,Chintaparti,13.64421,78.70485,2022-01-01,1.6,,,,,
Andhra Pradesh,Annamayya,Obulavaripalle,Mangampet,14.04102,79.30847,2022-01-01,10.6,,,,,
Andhra Pradesh,Annamayya,Penagalur,Penagaluru,14.29502,79.26093,2022-01-01,2.4,,,,,
Andhra Pradesh,Annamayya,Penagalur,Vadipalli,14.24839,79.23571,2022-01-01,15.1,,,,,
Andhra Pradesh,Annamayya,Pullampeta,Pothanavaripally,14.14806,79.19836,2022-01-01,3.1,,,,,
Andhra Pradesh,Annamayya,Ramapuram,Guvvalacheruvu,14.29693,78.7523,2022-01-01,1.8,,,,,
Andhra Pradesh,Annamayya,Ramapuram,Ramapuram,14.19364,78.76031,2022-01-01,2.6,,,,,
Andhra Pradesh,Annamayya,Ramasamudram,Ramasamudram,13.36429,78.4271,2022-01-01,1.4,,,,,
Andhra Pradesh,Annamayya,T.Sundupalle,Pincha,13.91567,78.99868,2022-01-01,5.4,,,,,
Andhra Pradesh,Annamayya,T.Sundupalle,Pujarivandlapally,14.04622,78.91012,2022-01-01,5.2,,,,,
Andhra Pradesh,Annamayya,Veeraballi,Sanipai,14.10753,78.94972,2022-01-01,3.8,,,,,
Andhra Pradesh,Bapatla,Amruthalur,Govada,16.06978,80.66747,2022-01-01,2.6,,,,,
Andhra Pradesh,Bapatla,Amruthalur,Kuchipudi,16.18465,80.65948,2022-01-01,1.7,,,,,
Andhra Pradesh,Bapatla,Ballikurava,Vaidana Kopperapadu,15.96058,79.96261,2022-01-01,2.0,,,,,
Andhra Pradesh,Bapatla,Bapatla,Bapatla,15.91587,80.48235,2022-01-01,2.8,,,,,
Andhra Pradesh,Bapatla,Bapatla,Cheruvu Jammulapalem,15.9354,80.44507,2022-01-01,2.7,,,,,
Andhra Pradesh,Bapatla,Bhattiprolu,Bhattiprolu,16.09661,80.77324,2022-01-01,2.1,,,,,
Andhra Pradesh,Bapatla,Cherukupalle,Punnapalle,16.06112,80.70123,2022-01-01,2.6,,,,,
Andhra Pradesh,Bapatla,Chinaganjam,Kadavakuduru,15.72645,80.25433,2022-01-01,4.8,,,,,
Andhra Pradesh,Bapatla,Chirala,Chirala,15.82977,80.35452,2022-01-01,4.1,,,,,
Andhra Pradesh,Bapatla,Chirala,Vadarevu,15.79749,80.41105,2022-01-01,2.8,,,,,
Andhra Pradesh,Bapatla,Inkollu,Duddukuru,15.74255,80.17304,2022-01-01,2.0,,,,,
Andhra Pradesh,Bapatla,Inkollu,Inkolu,15.8263,80.19111,2022-01-01,1.4,,,,,
Andhra Pradesh,Bapatla,Janakavaram Ponguluru Muppavaram,,15.84313,80.0518,2022-01-01,2.4,,,,,
Andhra Pradesh,Bapatla,Karamchedu,Karamchedu,15.8716,80.33343,2022-01-01,1.2,,,,,
Andhra Pradesh,Bapatla,Kollur,Kolluru,16.16666,80.8049,2022-01-01,2.4,,,,,
Andhra Pradesh,Bapatla,Korisapadu,Medarmetla,15.72831,80.0156,2022-01-01,6.0,,,,,
Andhra Pradesh,Bapatla,Nagaram,Mannevaripalem,15.9719,80.61419,2022-01-01,2.3,,,,,
Andhra Pradesh,Bapatla,Nizampatnam,Nijampatnam,15.90237,80.66388,2022-01-01,2.1,,,,,
Andhra Pradesh,Bapatla,Nizampatnam,Pallapatla,15.98293,80.75313,2022-01-01,2.6,,,,,
Andhra Pradesh,Bapatla,Repalle,Repalle,16.0288,80.8397,2022-01-01,1.8,,,,,
Andhra Pradesh,Bapatla,Vemuru,Chavali,16.1389,80.72749,2022-01-01,4.6,,,,,
Andhra Pradesh,Bapatla,Vetapalem,Veta Palem,15.77425,80.30475,2022-01-01,5.1,,,,,
Andhra Pradesh,Chittoor,Bangarupalem,Bangarupalem,13.18673,78.90465,2022-01-01,2.5,13.2172,79.1003,23.28,89.83,5.32
Andhra Pradesh,Chittoor,Bangarupalem,Shankrantipalli,13.19563,79.00402,2022-01-01,2.8,13.2172,79.1003,23.28,89.83,5.32
Andhra Pradesh,Chittoor,Chittoor,Chittoor,13.2075,79.09812,2022-01-01,2.6,13.2172,79.1003,23.28,89.83,5.32
Andhra Pradesh,Chittoor,Gangadhara Nellore,Bangareddypalli,13.22028,79.21784,2022-01-01,5.2,13.2172,79.1003,23.28,89.83,5.32
Andhra Pradesh,Chittoor,Karvetinagar,Karvetnagar,13.42624,79.45314,2022-01-01,3.4,13.2172,79.1003,23.28,89.83,5.32
Andhra Pradesh,Chittoor,Nagari,Bugga Agraharam,13.33126,79.6222,2022-01-01,2.1,13.2172,79.1003,23.28,89.83,5.32
Andhra Pradesh,Chittoor,Nindra,C.Kandriga,13.3492,79.6736,2022-01-01,1.5,13.2172,79.1003,23.28,89.83,5.32
Andhra Pradesh,Chittoor,Palamaner,Dugina Varipalli,13.14776,78.66117,2022-01-01,1.7,13.2172,79.1003,23.28,89.83,5.32
Andhra Pradesh,Chittoor,Palamaner,M.Kotur,13.10369,78.75291,2022-01-01,0.8,13.2172,79.1003,23.28,89.83,5.32
Andhra Pradesh,Chittoor,Palamaner,Palamaneru,13.19831,78.74307,2022-01-01,1.4,13.2172,79.1003,23.28,89.83,5.32
Andhra Pradesh,Chittoor,Puthalapattu,Bandarlapalli,13.33132,79.09955,2022-01-01,2.0,13.2172,79.1003,23.28,89.83,5.32
Andhra Pradesh,Chittoor,Puthalapattu,Chittipirala,13.41714,79.12091,2022-01-01,2.3,13.2172,79.1003,23.28,89.83,5.32
Andhra Pradesh,Chittoor,Sodam,Battuvaripalli,13.54709,78.91663,2022-01-01,2.3,13.2172,79.1003,23.28,89.83,5.32
Andhra Pradesh,Chittoor,Srirangarajapuram,Arumakapally,13.30327,79.28713,2022-01-01,2.1,13.2172,79.1003,23.28,89.83,5.32
Andhra Pradesh,Chittoor,Srirangarajapuram,Tayyuru,13.30289,79.31127,2022-01-01,2.8,13.2172,79.1003,23.28,89.83,5.32
Andhra Pradesh,Chittoor,Venkatagirikota,Venkatagirikota,13.00081,78.47934,2022-01-01,4.9,13.2172,79.1003,23.28,89.83,5.32
Andhra Pradesh,Chittoor,Yadamari,Muddu Ramapuram,13.10771,78.99415,2022-01-01,2.1,13.2172,79.1003,23.28,89.83,5.32
Andhra Pradesh,Dr. B.R. Ambedkar KonaseemAianavilli,,Ainavalli,16.6613,82.0125,2022-01-01,2.0,,,,,
Andhra Pradesh,Dr. B.R. Ambedkar KonaseemAianavilli,,Jonnada,16.7929,81.8659,2022-01-01,5.0,,,,,
Andhra Pradesh,Dr. B.R. Ambedkar KonaseemAianavilli,,Mukteshwaram,16.6602,82.0246,2022-01-01,6.1,,,,,
Andhra Pradesh,Dr. B.R. Ambedkar KonaseemAianavilli,,Vilasa,16.6187,82.0195,2022-01-01,2.2,,,,,
Andhra Pradesh,Dr. B.R. Ambedkar KonaseemAma alapuram,,Amalapuram,16.5734,82.0051,2022-01-01,1.9,,,,,
Andhra Pradesh,Dr. B.R. Ambedkar KonaseemAma alapuram,,Amalapuram,16.562,81.9956,2022-01-01,2.8,,,,,
Andhra Pradesh,Dr. B.R. Ambedkar KonaseemAma alapuram,,Bandurlanka,16.5882,81.9738,2022-01-01,4.2,,,,,
Andhra Pradesh,Dr. B.R. Ambedkar KonaseemAma bajipeta,,Ambajipeta,16.5933,81.9523,2022-01-01,2.7,,,,,
Andhra Pradesh,Dr. B.R. Ambedkar KonaseemAma bajipeta,,Chinalanka,16.6544,81.9381,2022-01-01,2.9,,,,,
Andhra Pradesh,Dr. B.R. Ambedkar KonaseemAtareyapuram,,Rally,16.7796,81.8027,2022-01-01,9.2,,,,,
Andhra Pradesh,Dr. B.R. Ambedkar KonaseemI. aPolavaram,,Komaragiri,16.6963,82.1802,2022-01-01,2.3,,,,,
Andhra Pradesh,Dr. B.R. Ambedkar KonaseemI. aPolavaram,,Muramalla,16.6728,82.165,2022-01-01,1.9,,,,,
Andhra Pradesh,Dr. B.R. Ambedkar KonaseemI. aPolavaram,,Yanam,16.7294,82.2141,2022-01-01,2.9,,,,,
Andhra Pradesh,Dr. B.R. Ambedkar KonaseemKoathapeta,,Kothapeta,16.7159,81.8964,2022-01-01,6.5,,,,,
Andhra Pradesh,Dr. B.R. Ambedkar KonaseemKoathapeta,,Kothapeta,16.716,81.8977,2022-01-01,6.3,,,,,
Andhra Pradesh,Dr. B.R. Ambedkar KonaseemKoathapeta,,Kothapeta,16.716,81.8977,2022-01-01,8.0,,,,,
Andhra Pradesh,Dr. B.R. Ambedkar KonaseemMaalikipuram,,Malikipuram,16.4135,81.8047,2022-01-01,2.7,,,,,
Andhra Pradesh,Dr. B.R. Ambedkar KonaseemMaalikipuram,,Pattipuram,16.4046,81.80582,2022-01-01,3.3,,,,,
Andhra Pradesh,Dr. B.R. Ambedkar KonaseemMaamidikuduru,,Appanapalle,16.5307,81.9234,2022-01-01,4.1,,,,,
Andhra Pradesh,Dr. B.R. Ambedkar KonaseemMaandapeta,,Dwarapudi,16.927,81.9167,2022-01-01,1.9,,,,,
Andhra Pradesh,Dr. B.R. Ambedkar KonaseemMaummidivaram,,Mobalacherevu,16.6165,82.0731,2022-01-01,2.3,,,,,
Andhra Pradesh,Dr. B.R. Ambedkar KonaseemMaummidivaram,,Thanelankamulli,16.6562,82.1221,2022-01-01,2.6,,,,,
Andhra Pradesh,Dr. B.R. Ambedkar KonaseemPaamarru,,Kotipalle,16.6998,82.038,2022-01-01,3.9,,,,,
Andhra Pradesh,Dr. B.R. Ambedkar KonaseemRaavulapalem,,Annaipeta,16.7898,82.066,2022-01-01,2.4,,,,,
Andhra Pradesh,Dr. B.R. Ambedkar KonaseemRaavulapalem,,Delta Gannavarm,16.5879,81.8885,2022-01-01,2.6,,,,,
Andhra Pradesh,Dr. B.R. Ambedkar KonaseemRaavulapalem,,Draksharamam,16.7921,82.0637,2022-01-01,4.9,,,,,
Andhra Pradesh,Dr. B.R. Ambedkar KonaseemRaavulapalem,,Mummidivarampad,16.7029,81.8325,2022-01-01,2.6,,,,,
Andhra Pradesh,Dr. B.R. Ambedkar KonaseemRaavulapalem,,Tallapolom,16.8168,82.0391,2022-01-01,4.8,,,,,
Andhra Pradesh,Dr. B.R. Ambedkar KonaseemRaavulapalem,,Vegayamma Peta,16.7764,82.08786,2022-01-01,3.3,,,,,
Andhra Pradesh,Dr. B.R. Ambedkar KonaseemRaazole,,Razole,16.48,81.8446,2022-01-01,3.1,,,,,
Andhra Pradesh,Dr. B.R. Ambedkar KonaseemSaakhinetipalle,,Antarvedi,16.3337,81.7332,2022-01-01,2.1,,,,,
Andhra Pradesh,East Godavari,Anaparthy,Anaparthy,16.9384,81.9542,2022-01-01,2.9,16.7829,82.243,23.98,81.57,0.0
Andhra Pradesh,East Godavari,Gokavaram,Bhavujipet,17.2083,81.8467,2022-01-01,4.6,16.7829,82.243,23.98,81.57,0.0
Andhra Pradesh,East Godavari,Gokavaram,Gokavaram,17.2653,81.8475,2022-01-01,3.4,16.7829,82.243,23.98,81.57,0.0
Andhra Pradesh,East Godavari,Gopalapuram,Chityala,17.0895,81.5966,2022-01-01,2.9,16.7829,82.243,23.98,81.57,0.0
Andhra Pradesh,East Godavari,Gopalapuram,Dondapudi,17.2097,81.544,2022-01-01,8.6,16.7829,82.243,23.98,81.57,0.0
Andhra Pradesh,East Godavari,Gopalapuram,Gopalpuram,17.1011,81.5482,2022-01-01,4.2,16.7829,82.243,23.98,81.57,0.0
Andhra Pradesh,East Godavari,Kovvur,I.Pangadi,17.0183,81.6484,2022-01-01,1.9,16.7829,82.243,23.98,81.57,0.0
Andhra Pradesh,East Godavari,Kovvur,Kovvur,17.0036,81.7416,2022-01-01,1.9,16.7829,82.243,23.98,81.57,0.0
Andhra Pradesh,East Godavari,Nallajerla,Nallajerla,16.9451,81.4018,2022-01-01,34.5,16.7829,82.243,23.98,81.57,0.0
Andhra Pradesh,East Godavari,Nidadavole,Goparam,16.916,81.6972,2022-01-01,3.9,16.7829,82.243,23.98,81.57,0.0
Andhra Pradesh,East Godavari,Nidadavole,Munipalli,16.8685,81.7101,2022-01-01,2.2,16.7829,82.243,23.98,81.57,0.0
Andhra Pradesh,East Godavari,Nidadavole,Munipalli,16.8549,81.7143,2022-01-01,4.2,16.7829,82.243,23.98,81.57,0.0
Andhra Pradesh,East Godavari,Nidadavole,Nidadavolu,16.8947,81.6746,2022-01-01,2.2,16.7829,82.243,23.98,81.57,0.0
Andhra Pradesh,East Godavari,Rajahmundry Rural,Dowalaiswaram,16.9392,81.7866,2022-01-01,8.4,16.7829,82.243,23.98,81.57,0.0
Andhra Pradesh,East Godavari,Rajahmundry Rural,Dowalaiswaram,16.9392,81.7866,2022-01-01,9.5,16.7829,82.243,23.98,81.57,0.0
Andhra Pradesh,East Godavari,Rajahmundry Rural,Kolamuru,17.0595,81.8051,2022-01-01,1.5,16.7829,82.243,23.98,81.57,0.0
Andhra Pradesh,East Godavari,Rajahmundry Urban,Rajahmundry,17.0129,81.7828,2022-01-01,2.7,16.7829,82.243,23.98,81.57,0.0
Andhra Pradesh,East Godavari,Rajahmundry Urban,Rajahmundry,16.9915,81.7776,2022-01-01,3.1,16.7829,82.243,23.98,81.57,0.0
Andhra Pradesh,East Godavari,Rajahmundry Urban,Swarajyanagar,16.9726,81.7851,2022-01-01,3.1,16.7829,82.243,23.98,81.57,0.0
Andhra Pradesh,East Godavari,Rajanagaram,Rajanagaram,17.083,81.9065,2022-01-01,2.5,16.7829,82.243,23.98,81.57,0.0
Andhra Pradesh,East Godavari,Rangampeta,Kotapadu,17.0883,82.025,2022-01-01,3.7,16.7829,82.243,23.98,81.57,0.0
Andhra Pradesh,East Godavari,Thallapudi,Tadipudi,17.1633,81.659,2022-01-01,2.2,16.7829,82.243,23.98,81.57,0.0
Andhra Pradesh,East Godavari,Thallapudi,Tallapudi,17.124,81.6687,2022-01-01,1.3,16.7829,82.243,23.98,81.57,0.0
Andhra Pradesh,East Godavari,Thallapudi,Vegeshwarapuram,17.1108,81.6735,2022-01-01,2.8,16.7829,82.243,23.98,81.57,0.0
Andhra Pradesh,Eluru,Agiripalli,Vadlamanu,16.72076,80.8092,2022-01-01,1.6,,,,,
Andhra Pradesh,Eluru,Buttayagudem,Buttayagudem,17.19884,81.31883,2022-01-01,3.3,,,,,
Andhra Pradesh,Eluru,Buttayagudem,Gunjavaram,17.2036,81.4172,2022-01-01,4.2,,,,,
Andhra Pradesh,Eluru,Chatrai,Polavaram,16.99011,80.91443,2022-01-01,7.4,,,,,
Andhra Pradesh,Eluru,Chintalapudi,Erraguntlapalli,17.14538,81.0098,2022-01-01,5.2,,,,,
Andhra Pradesh,Eluru,Dwarakatirumala,Lakshmipuram,16.93591,81.25314,2022-01-01,2.8,,,,,
Andhra Pradesh,Eluru,Dwarakatirumala,Pottalakattugudem,17.0726,81.25797,2022-01-01,8.0,,,,,
Andhra Pradesh,Eluru,Eluru,Eluru,16.70425,81.08515,2022-01-01,2.2,,,,,
Andhra Pradesh,Eluru,Eluru,Eluru,16.71082,81.11041,2022-01-01,3.0,,,,,
Andhra Pradesh,Eluru,Ganapavaram,Sarepalle,16.6886,81.4654,2022-01-01,1.6,,,,,
Andhra Pradesh,Eluru,Jangareddigudem,Jangareddygudem,17.12102,81.30142,2022-01-01,5.5,,,,,
Andhra Pradesh,Eluru,Kaikalur,Palevada,16.5794,81.28671,2022-01-01,1.4,,,,,
Andhra Pradesh,Eluru,Kalidindi,Kalidindi,16.50521,81.29016,2022-01-01,1.7,,,,,
Andhra Pradesh,Eluru,Kamavarapukota,Kamavarapukota,17.01219,81.19715,2022-01-01,2.6,,,,,
Andhra Pradesh,Eluru,Koyyalagudem,Kanapuram,17.1878,81.41756,2022-01-01,3.2,,,,,
Andhra Pradesh,Eluru,Koyyalagudem,Koyyalagudem,17.12379,81.42705,2022-01-01,12.4,,,,,
Andhra Pradesh,Eluru,Kukkunur,Amaravaram,17.58533,81.00568,2022-01-01,4.2,,,,,
Andhra Pradesh,Eluru,Kukkunur,Kukkunur,17.55514,81.16536,2022-01-01,4.5,,,,,
Andhra Pradesh,Eluru,Lingapalem,Dharmajigudem,16.89332,80.93496,2022-01-01,2.4,,,,,
Andhra Pradesh,Eluru,Mandavalli,Kaikaluru,16.54512,81.20063,2022-01-01,2.1,,,,,
Andhra Pradesh,Eluru,Mandavalli,Kanukollu,16.46083,81.13434,2022-01-01,2.3,,,,,
Andhra Pradesh,Eluru,Mandavalli,Mandavalli,16.51776,81.16381,2022-01-01,1.0,,,,,
Andhra Pradesh,Eluru,Mudinepalle,Bomminampadu,16.47353,81.21706,2022-01-01,1.7,,,,,
Andhra Pradesh,Eluru,Mudinepalle,Singarayapalem,16.41075,81.15158,2022-01-01,2.3,,,,,
Andhra Pradesh,Eluru,Musunuru,Musunuru,16.82837,80.93506,2022-01-01,8.8,,,,,
Andhra Pradesh,Eluru,Nuzvid,Nuzivedu,16.78681,80.855,2022-01-01,0.8,,,,,
Andhra Pradesh,Eluru,Polavaram,Gutala,17.18473,81.65226,2022-01-01,6.7,,,,,
Andhra Pradesh,Eluru,Unguturu,Gopinadhapatnam,16.8422,81.3878,2022-01-01,41.7,,,,,
Andhra Pradesh,Eluru,Unguturu,Rachuru,16.77608,81.42575,2022-01-01,4.2,,,,,
Andhra Pradesh,Guntur,Chebrole,Chebrolu,16.19964,80.5258,2022-01-01,2.0,16.3067,80.4365,22.46,84.71,0.0
Andhra Pradesh,Guntur,Chebrole,Narakoduru,16.22566,80.5145,2022-01-01,3.3,16.3067,80.4365,22.46,84.71,0.0
Andhra Pradesh,Guntur,Guntur,Budampadu,16.2601,80.4703,2022-01-01,4.5,16.3067,80.4365,22.46,84.71,0.0
Andhra Pradesh,Guntur,Guntur,Etukuru,16.26319,80.42476,2022-01-01,2.7,16.3067,80.4365,22.46,84.71,0.0
Andhra Pradesh,Guntur,Guntur,Guntur,16.29855,80.43186,2022-01-01,2.7,16.3067,80.4365,22.46,84.71,0.0
Andhra Pradesh,Guntur,Guntur,Nallapadu,16.3057,80.3739,2022-01-01,3.1,16.3067,80.4365,22.46,84.71,0.0
Andhra Pradesh,Guntur,Kollipara,Kollipara,16.28664,80.74958,2022-01-01,2.5,16.3067,80.4365,22.46,84.71,0.0
Andhra Pradesh,Guntur,Medikonduru,Medikondur,16.34548,80.30237,2022-01-01,4.1,16.3067,80.4365,22.46,84.71,0.0
Andhra Pradesh,Guntur,Pedanandipadu,Varagani,16.08508,80.32897,2022-01-01,1.4,16.3067,80.4365,22.46,84.71,0.0
Andhra Pradesh,Guntur,Phirangipuram,Pirangipuram,16.28805,80.25652,2022-01-01,2.9,16.3067,80.4365,22.46,84.71,0.0
Andhra Pradesh,Guntur,Ponnur,Kattempudi,16.09379,80.54533,2022-01-01,3.8,16.3067,80.4365,22.46,84.71,0.0
Andhra Pradesh,Guntur,Ponnur,Ponnur,16.06466,80.54306,2022-01-01,4.4,16.3067,80.4365,22.46,84.71,0.0
Andhra Pradesh,Guntur,Prathipadu,Prattipadu,16.18035,80.33181,2022-01-01,0.9,16.3067,80.4365,22.46,84.71,0.0
Andhra Pradesh,Guntur,Tadikonda,Mukkamala,16.45179,80.37504,2022-01-01,5.7,16.3067,80.4365,22.46,84.71,0.0
Andhra Pradesh,Guntur,Tadikonda,Phanidharam,16.36065,80.39687,2022-01-01,2.2,16.3067,80.4365,22.46,84.71,0.0
Andhra Pradesh,Guntur,Tadikonda,Ponnekallu,16.40434,80.40218,2022-01-01,2.2,16.3067,80.4365,22.46,84.71,0.0
Andhra Pradesh,Guntur,Tadikonda,Ravela,16.41808,80.34876,2022-01-01,2.2,16.3067,80.4365,22.46,84.71,0.0
Andhra Pradesh,Guntur,Tadikonda,Tadikonda,16.41654,80.45335,2022-01-01,3.4,16.3067,80.4365,22.46,84.71,0.0
Andhra Pradesh,Guntur,Tenali,Sekuru,16.26965,80.58749,2022-01-01,3.8,16.3067,80.4365,22.46,84.71,0.0
Andhra Pradesh,Guntur,Thullur,Mandhadam,16.51444,80.53159,2022-01-01,2.6,16.3067,80.4365,22.46,84.71,0.0
Andhra Pradesh,Guntur,Thullur,Pedda Parimi,16.45981,80.45514,2022-01-01,3.5,16.3067,80.4365,22.46,84.71,0.0
Andhra Pradesh,Guntur,Thullur,Thullur,16.53051,80.4703,2022-01-01,2.7,16.3067,80.4365,22.46,84.71,0.0
Andhra Pradesh,Kakinada,Gollaprolu,Gollaprolu,17.1538,82.2864,2022-01-01,2.9,,,,,
Andhra Pradesh,Kakinada,Kakinada Rural,Anjaneyanagar,17.0094,82.2482,2022-01-01,2.6,,,,,
Andhra Pradesh,Kakinada,Kakinada Rural,Fishing Horbour,16.985,82.2757,2022-01-01,1.9,,,,,
Andhra Pradesh,Kakinada,Kakinada Rural,Kasinadhapuram,16.9248,82.236,2022-01-01,3.2,,,,,
Andhra Pradesh,Kakinada,Kakinada Rural,Repuru,16.9557,82.1893,2022-01-01,2.3,,,,,
Andhra Pradesh,Kakinada,Kakinada Rural,Vakalpudi,17.0137,82.2835,2022-01-01,1.6,,,,,
Andhra Pradesh,Kakinada,Kakinada Urban,Santhacheruvu,16.9503,82.237,2022-01-01,3.1,,,,,
Andhra Pradesh,Kakinada,Kirlampudi,Burugupudi,17.2,82.1018,2022-01-01,10.9,,,,,
Andhra Pradesh,Kakinada,Pithapuram,Pithapuram,17.1007,82.2462,2022-01-01,1.8,,,,,
Andhra Pradesh,Kakinada,Prathipadu,Dharmavaram,17.227,82.2285,2022-01-01,1.3,,,,,
Andhra Pradesh,Kakinada,Prathipadu,Pratipadu,17.2302,82.1986,2022-01-01,1.7,,,,,
Andhra Pradesh,Kakinada,Routhulapudi,Jaldam,17.4486,82.3317,2022-01-01,4.6,,,,,
Andhra Pradesh,Kakinada,Sankhavaram,G. Kottapalli,17.3068,82.3655,2022-01-01,3.1,,,,,
Andhra Pradesh,Kakinada,Sankhavaram,Kattipudi,17.2429,82.3314,2022-01-01,3.0,,,,,
Andhra Pradesh,Kakinada,Sankhavaram,Velangi,17.4147,82.2803,2022-01-01,2.2,,,,,
Andhra Pradesh,Kakinada,Thallarevu,Chollangi,16.8854,82.2339,2022-01-01,2.4,,,,,
Andhra Pradesh,Kakinada,Thallarevu,Tallarevu,16.7828,82.2303,2022-01-01,2.8,,,,,
Andhra Pradesh,Kakinada,Thallarevu,Thurpet,16.7529,82.2289,2022-01-01,2.2,,,,,
Andhra Pradesh,Kakinada,Thondangi,Tammayyapeta,17.2496,82.3708,2022-01-01,1.5,,,,,
Andhra Pradesh,Kakinada,Tuni,Hamsavaram,17.2921,82.4927,2022-01-01,1.7,,,,,
Andhra Pradesh,Kakinada,U.Kothapalle,Uppada,17.0805,82.3355,2022-01-01,1.9,,,,,
Andhra Pradesh,Kakinada,Yeleswaram,Gontuvanipalem,17.35472,82.11482,2022-01-01,2.8,,,,,
Andhra Pradesh,Krishna,Avanigadda,Avanigadda,16.02086,80.91149,2022-01-01,4.6,16.216,81.079,24.94,80.79,0.0
Andhra Pradesh,Krishna,Bantumilli,Bantumilli1,16.36972,81.27216,2022-01-01,2.0,16.216,81.079,24.94,80.79,0.0
Andhra Pradesh,Krishna,Bantumilli,Mallapparajgudem,16.40907,81.20812,2022-01-01,2.1,16.216,81.079,24.94,80.79,0.0
Andhra Pradesh,Krishna,Bantumilli,Malleshwaram,16.35511,81.27117,2022-01-01,2.6,16.216,81.079,24.94,80.79,0.0
Andhra Pradesh,Krishna,Bantumilli,Munjuluru,16.3092,81.212,2022-01-01,2.8,16.216,81.079,24.94,80.79,0.0
Andhra Pradesh,Krishna,Challapalli,Challapalli,16.11859,80.9394,2022-01-01,1.7,16.216,81.079,24.94,80.79,0.0
Andhra Pradesh,Krishna,Challapalli,Lankapalli,16.1347,80.9856,2022-01-01,2.1,16.216,81.079,24.94,80.79,0.0
Andhra Pradesh,Krishna,Gannavaram,Bahu Balendruni Gudem,16.57149,80.79161,2022-01-01,0.8,16.216,81.079,24.94,80.79,0.0
Andhra Pradesh,Krishna,Gudivada,Angaluru,16.38194,81.03434,2022-01-01,1.6,16.216,81.079,24.94,80.79,0.0
Andhra Pradesh,Krishna,Gudivada,Kautaram,16.33537,81.07784,2022-01-01,2.3,16.216,81.079,24.94,80.79,0.0
Andhra Pradesh,Krishna,Gudlavalleru,Gudlavalleru,16.34357,81.05475,2022-01-01,4.4,16.216,81.079,24.94,80.79,0.0
Andhra Pradesh,Krishna,Guduru,Gudur,16.22013,81.08494,2022-01-01,1.7,16.216,81.079,24.94,80.79,0.0
Andhra Pradesh,Krishna,Koduru,Koduru,16.00734,81.02759,2022-01-01,1.3,16.216,81.079,24.94,80.79,0.0
Andhra Pradesh,Krishna,Koduru,Mandapakala,15.97411,81.00007,2022-01-01,2.3,16.216,81.079,24.94,80.79,0.0
Andhra Pradesh,Krishna,Machilipatnam,Sultan Nagar,16.20014,81.11369,2022-01-01,2.3,16.216,81.079,24.94,80.79,0.0
Andhra Pradesh,Krishna,Movva,Ayyanki,16.26568,80.94375,2022-01-01,2.6,16.216,81.079,24.94,80.79,0.0
Andhra Pradesh,Krishna,Movva,Movva,16.2269,80.9129,2022-01-01,1.6,16.216,81.079,24.94,80.79,0.0
Andhra Pradesh,Krishna,Nagayalanka,Marripalem,15.94947,80.92235,2022-01-01,2.6,16.216,81.079,24.94,80.79,0.0
Andhra Pradesh,Krishna,Nandivada,Polukonda,16.51948,81.07816,2022-01-01,0.9,16.216,81.079,24.94,80.79,0.0
Andhra Pradesh,Krishna,Pamarru,Kurumaddali,16.3311,80.92607,2022-01-01,2.3,16.216,81.079,24.94,80.79,0.0
Andhra Pradesh,Krishna,Pamarru,Nimmakuru,16.27474,81.0052,2022-01-01,3.4,16.216,81.079,24.94,80.79,0.0
Andhra Pradesh,Krishna,Pedana,Balliparru,16.27747,81.18728,2022-01-01,1.7,16.216,81.079,24.94,80.79,0.0
Andhra Pradesh,Krishna,Pedana,Nadupur,16.28296,81.12932,2022-01-01,3.7,16.216,81.079,24.94,80.79,0.0
Andhra Pradesh,Krishna,Pedana,Pedana,16.25839,81.14948,2022-01-01,1.9,16.216,81.079,24.94,80.79,0.0
Andhra Pradesh,Krishna,Pedaparupudi,Venkatapragada,16.44202,80.91022,2022-01-01,4.3,16.216,81.079,24.94,80.79,0.0
Andhra Pradesh,Krishna,Vuyyuru,Kadavakollu,16.39653,80.85242,2022-01-01,3.4,16.216,81.079,24.94,80.79,0.0
Andhra Pradesh,Krishna,Vuyyuru,Tadanki,16.35812,80.88031,2022-01-01,2.8,16.216,81.079,24.94,80.79,0.0
Andhra Pradesh,Kurnool,Adoni,Adoni Kota Veerabhadraswamig1u5d.6i 6670,,77.2875,2022-01-01,6.5,15.8281,78.0373,24.26,64.98,0.02
